city,population,lat,lon,region_name,region_name_ao,region_iso_code,federal_district,okato,oktmo,kladr_id,fias_id
Алейск,29.0,52.4922513,82.7793606,Алтайский край,,RU-ALT,Сибирский,1403000000,1703000001,2200000200000,ae716080-f27b-40b6-a555-cf8b518e849e
Барнаул,632.4,53.3479968,83.7798064,Алтайский край,,RU-ALT,Сибирский,1401000000,1701000001,2200000100000,d13945a8-7017-46ab-b1e6-ede1e89317ad
Белокуриха,15.2,51.996152,84.9839604,Алтайский край,,RU-ALT,Сибирский,1404000000,1704000001,2200000300000,e4edca96-9b86-4cac-8c7f-cc93d9ba4cd1
Бийск,199.5,52.5393864,85.2138453,Алтайский край,,RU-ALT,Сибирский,1405000000,1705000001,2200000400000,52f876f6-cb1d-4f23-a22f-b692609fc1e0
Горняк,12.3,50.9979622,81.4643358,Алтайский край,,RU-ALT,Сибирский,1225501000,1625101001,2202700100000,094b3627-2699-4782-8492-4d82aac71958
Заринск,45.9,53.7063476,84.9315081,Алтайский край,,RU-ALT,Сибирский,1406000000,1706000001,2200001100000,142e04ef-dec1-44fa-b553-fac215764374
Змеиногорск,10.2,51.1581094,82.1872547,Алтайский край,,RU-ALT,Сибирский,1214501000,1614101001,2201500100000,e7001b8f-d104-4873-96d4-66339f5e530a
Камень-на-Оби,40.5,53.7913974,81.3545053,Алтайский край,,RU-ALT,Сибирский,1216501000,1616101001,2201800100000,810ca9c7-f10e-4def-9c48-f0aa83168ca7
Новоалтайск,74.6,53.4119759,83.9311069,Алтайский край,,RU-ALT,Сибирский,1413000000,1713000001,2200000800000,aa288d9f-4b2a-42a6-97f0-3502dddfa383
Рубцовск,141.6,51.5012067,81.2078695,Алтайский край,,RU-ALT,Сибирский,1416000000,1716000001,2200000900000,65db5c88-c65c-43f0-9c21-13e15a032d4a
Славгород,29.1,52.999463,78.6459232,Алтайский край,,RU-ALT,Сибирский,1419000000,1719000001,2200001000000,94ae181d-b153-4dd1-8a2f-12852919875f
Яровое,18.1,52.9252146,78.5729775,Алтайский край,,RU-ALT,Сибирский,1430000000,1730000001,2200001200000,e07d57ed-22ce-4020-b59c-f7aae6f091bf
Белогорск,65.3,50.9213415,128.4739471,Амурская область,,RU-AMU,Дальневосточный,10410000000,10710000001,2800000300000,c528e99b-7e81-4290-9cda-8713884472a5
Благовещенск,226.4,50.290659,127.527198,Амурская область,,RU-AMU,Дальневосточный,10401000000,10701000001,2800000100000,8f41253d-6e3b-48a9-842a-25ba894bd093
Завитинск,10.2,50.1064111,129.4391813,Амурская область,,RU-AMU,Дальневосточный,10221501000,10621101001,2800500100000,7b39476f-0edb-4bc3-bb31-6cedfb2aa695
Зея,23.0,53.7340088,127.265787,Амурская область,,RU-AMU,Дальневосточный,10412000000,10712000001,2800000400000,581855f4-f0bc-44a5-a36e-a298279f9ec4
Райчихинск,16.8,49.7941615,129.4112492,Амурская область,,RU-AMU,Дальневосточный,10420000000,10720000001,2800000200000,981b5f3a-f0b6-444f-a6fb-c2bc10804b31
Свободный,54.0,51.3614103,128.1219729,Амурская область,,RU-AMU,Дальневосточный,10430000000,10730000001,2800000500000,dd560dfa-3feb-48e2-aa3b-b71213e7441e
Сковородино,8.9,53.9871095,123.9437205,Амурская область,,RU-AMU,Дальневосточный,10249501000,10649101001,2801700100000,260c545f-883c-440a-852c-c39a65fe4104
Тында,33.2,55.1546441,124.7468904,Амурская область,,RU-AMU,Дальневосточный,10432000000,10732000001,2800000600000,007e010f-e110-4a55-90a7-c4acac623c9b
Циолковский,7.2,51.762481,128.1219846,Амурская область,,RU-AMU,Дальневосточный,10545000000,10770000001,2800001000000,f9ce3255-3f79-4457-919c-d180fa813b6a
Шимановск,18.6,52.0051886,127.7005458,Амурская область,,RU-AMU,Дальневосточный,10440000000,10740000001,2800000700000,809f0591-bb18-40a2-9fac-7d3d0a22c0bf
Архангельск,347.0,64.5394289,40.5169606,Архангельская область,,RU-ARK,Северо-Западный,11401000000,11701000001,2900000100000,06814fb6-0dc3-4bec-ba20-11f894a0faf5
Вельск,22.3,61.066,42.1032789,Архангельская область,,RU-ARK,Северо-Западный,11205501000,11605101001,2900200100000,71051070-fce3-4a4d-a9d9-cd50f6dc6310
Каргополь,10.0,61.5009724,38.9636966,Архангельская область,,RU-ARK,Северо-Западный,11218501000,11518000001,2900600100000,a670f317-f3c4-4dd6-9d27-fa68a8b28b6f
Коряжма,35.7,61.2885948,47.1003015,Архангельская область,,RU-ARK,Северо-Западный,11408000000,11708000001,2900000500000,782acb50-ddfa-4483-bcbd-a5e667976036
Котлас,62.0,61.2528972,46.633242,Архангельская область,,RU-ARK,Северо-Западный,11410000000,11710000001,2900800100000,93adb246-540e-40a2-a0fd-e96ca6796589
Мезень,3.2,65.8398078,44.2532273,Архангельская область,,RU-ARK,Северо-Западный,11242501000,11642101001,2901200100000,8a49f67f-6c48-4160-bd1d-ebc188a69269
Мирный,32.9,62.7645265,40.3360076,Архангельская область,,RU-ARK,Северо-Западный,11525000000,11725000001,2900000200000,977c7606-1b37-4424-84f7-b0c66c3e4b94
Нарьян-Мар,25.1,67.63777777777779,53.00666666666667,Архангельская область,Ненецкий автономный округ,RU-ARK,Северо-Западный,11000000000,11000000,2900000000000,294277aa-e25d-428c-95ad-46719c4ddb44
Новодвинск,37.7,64.4136851,40.8208143,Архангельская область,,RU-ARK,Северо-Западный,11415000000,11715000001,2900000300000,3b0ef6c2-9bcd-44a5-afec-2723bd8190bc
Няндома,19.1,61.6654674,40.2062947,Архангельская область,,RU-ARK,Северо-Западный,11244501000,11644101001,2901300100000,491b0861-0da5-4781-9c2c-521df0ea7af6
Онега,18.5,63.9162928,38.0805031,Архангельская область,,RU-ARK,Северо-Западный,11420000000,11646101001,2901400100000,53e6ddd5-a1fb-4444-89a4-3952ef6f114b
Северодвинск,182.0,64.5625385,39.8180934,Архангельская область,,RU-ARK,Северо-Западный,11430000000,11730000001,2900000400000,32747c72-c08b-4440-b340-91f48d72f9db
Сольвычегодск,1.9,61.3319616,46.920441,Архангельская область,,RU-ARK,Северо-Западный,11227504000,11627104001,2900800300000,a56a44ee-f79d-4e51-b219-c3c828c7e0c0
Шенкурск,4.7,62.1057272,42.8996973,Архангельская область,,RU-ARK,Северо-Западный,11258501000,11658101001,2901900100000,74a26d75-38a6-485a-9468-52dd7c6711fa
Астрахань,529.8,46.3655652,48.0559236,Астраханская область,,RU-AST,Южный,12401000000,12701000001,3000000100000,a101dd8b-3aee-4bda-9c61-9df106f145ff
Ахтубинск,36.5,48.2752034,46.1906462,Астраханская область,,RU-AST,Южный,12205501000,12605101001,3000200100000,8d7acd62-cef4-4d5c-8057-644ee454ce6c
Знаменск,26.7,48.5866291,45.7368019,Астраханская область,,RU-AST,Южный,12519000000,12719000001,3000000200000,54ecd5a8-83d9-4a85-ae2c-6fe6976ab716
Камызяк,15.7,46.110579,48.07333,Астраханская область,,RU-AST,Южный,12225501000,12625101001,3000600100000,bc643e13-dcc5-4fa4-8cb1-94f71c5c18f4
Нариманов,10.8,46.6916565,47.8502476,Астраханская область,,RU-AST,Южный,12240501000,12640101001,3000900100000,46ce55dd-e3e2-4c31-ab3c-273423c2f782
Харабали,17.5,47.408999,47.2525345,Астраханская область,,RU-AST,Южный,12245501000,12645101001,3001100100000,08373220-e187-4094-82de-b8e0864c5f38
Алексеевка,37.8,50.6299647,38.6880342,Белгородская область,,RU-BEL,Центральный,14410000000,14710000001,3100200100000,94969f84-fff4-4ddf-9677-b912b4b2aa3e
Белгород,394.1,50.5976472,36.5856652,Белгородская область,,RU-BEL,Центральный,14401000000,14701000001,3100000100000,02e9c019-ab4d-4fa0-928e-d6c0a41dc256
Бирюч,7.5,50.6484585,38.4005083,Белгородская область,,RU-BEL,Центральный,14242501000,14642151001,3101200100000,eaaf5809-d1e2-4d93-8f05-85dd598cc403
Валуйки,34.2,50.2111207,38.0998772,Белгородская область,,RU-BEL,Центральный,14420000000,14720000001,3100400100000,fe7eea4a-875a-4235-aa61-81c2a37a0440
Грайворон,6.5,50.4862958,35.6663877,Белгородская область,,RU-BEL,Центральный,14232501000,14725000001,3100700100000,51c31ef5-10b3-4011-8e1c-7e7d452afd1b
Губкин,86.2,51.2837123,37.5347759,Белгородская область,,RU-BEL,Центральный,14430000000,14730000001,3100000400000,98b1ec30-6107-4f99-ae3a-9d82492f30a1
Короча,5.8,50.8129041,37.1896436,Белгородская область,,RU-BEL,Центральный,14240501000,14640101001,3101000100000,76fecead-fc02-459a-bce4-848698e645fe
Новый Оскол,18.5,50.7633747,37.8775484,Белгородская область,,RU-BEL,Центральный,14244501000,14735000001,3101400100000,f565b329-4041-4fd2-aa0a-debd5f7c3857
Старый Оскол,223.9,51.2967101,37.8350182,Белгородская область,,RU-BEL,Центральный,14440000000,14740000001,3100000200000,9f5e86b1-b893-43dc-9dd4-ac66573b17d1
Строитель,24.1,50.7845099,36.4887648,Белгородская область,,RU-BEL,Центральный,14258501000,14755000001,3102100100000,19c9f6de-45cd-4c76-9839-abd571698ced
Шебекино,40.9,50.4004883,36.8877889,Белгородская область,,RU-BEL,Центральный,14450000000,14750000001,3100000300000,dc80ddf0-b1ac-4344-98e8-fcfa5295a0a3
Брянск,402.7,53.2419535,34.3652146,Брянская область,,RU-BRY,Центральный,15401000000,15701000001,3200000100000,414b71cf-921e-4bfc-b6e0-f7395d16aaef
Дятьково,26.2,53.5958178,34.3551812,Брянская область,,RU-BRY,Центральный,15216501000,15616104001,3200600100000,fd37b6f0-2406-41ca-86bc-57dd58fd71f4
Жуковка,16.4,53.5340397,33.7302579,Брянская область,,RU-BRY,Центральный,15222501000,15502000001,3200800100000,bd51e883-748a-4c55-ac0a-eee31be1433e
Злынка,5.3,52.4267015,31.7360399,Брянская область,,RU-BRY,Центральный,15223501000,15623101001,3200900100000,9491aba8-fbc1-4da8-8ede-8d49690c393a
Карачев,17.2,53.1296524,34.9888727,Брянская область,,RU-BRY,Центральный,15224501000,15624101001,3201000100000,6f39b866-1fed-4add-aa00-e76992516660
Клинцы,63.0,52.7529119,32.233911,Брянская область,,RU-BRY,Центральный,15415000000,15715000001,3200000300000,59cb1f1f-16f9-47eb-9487-14a6c00e8621
Мглин,7.1,53.0599771,32.8468129,Брянская область,,RU-BRY,Центральный,15236501000,15636101001,3201600100000,a4162075-13cb-4f4a-9974-ef042c8be149
Новозыбков,39.5,52.537173,31.9357991,Брянская область,,RU-BRY,Центральный,15420000000,15720000001,3200000400000,cf4dd9d7-d152-4140-bed2-59d8be5a4e2c
Почеп,16.4,52.9154851,33.4744058,Брянская область,,RU-BRY,Центральный,15244501000,15644101001,3202000100000,434c6101-648e-4266-8aca-bbbc80856d7a
Севск,6.6,52.1483358,34.4918415,Брянская область,,RU-BRY,Центральный,15248501000,15648101001,3202200100000,263c5f6f-335b-4cfa-a234-3c61488c3729
Сельцо,16.4,53.3739884,34.1059172,Брянская область,,RU-BRY,Центральный,15425000000,15725000001,3200000200000,485f4c4d-aced-4b94-b975-88e72b7dcb72
Стародуб,18.2,52.5852257,32.760403,Брянская область,,RU-BRY,Центральный,15250501000,15501000001,3200000600000,78e19000-cb0d-4e86-8205-242ee9de9e75
Сураж,10.7,53.0170888,32.3938878,Брянская область,,RU-BRY,Центральный,15254501000,15654101001,3202500100000,565317d8-daf3-4df1-bf3d-6703b0d1500f
Трубчевск,13.6,52.5791734,33.7660547,Брянская область,,RU-BRY,Центральный,15256501000,15656101001,3202600100000,7c080d22-1f3c-43b0-ba63-1e7de99724c9
Унеча,22.8,52.8461199,32.6757629,Брянская область,,RU-BRY,Центральный,15258501000,15658101001,3202700100000,6a2d5db9-1871-4f1d-b226-bbc6b8400a44
Фокино,12.8,53.4554145,34.4159238,Брянская область,,RU-BRY,Центральный,15216504000,15710000001,3200000500000,8d7c89e7-d9b9-4d7a-907c-a654b3a4d23d
Александров,57.9,56.391819,38.7111123,Владимирская область,,RU-VLA,Центральный,17205501000,17605101001,3300200100000,59e55956-69a2-432f-b880-74cf8ec0b9fe
Владимир,356.9,56.1280804,40.4084376,Владимирская область,,RU-VLA,Центральный,17401000000,17701000001,3300000100000,f66a00e6-179e-4de9-8ecb-78b0277c9f10
Вязники,34.5,56.29773,42.2687398,Владимирская область,,RU-VLA,Центральный,17210501000,17610101001,3300300100000,0114e0c6-4060-4473-bc44-779e5a85e9dd
Гороховец,12.6,56.2021036,42.6926111,Владимирская область,,RU-VLA,Центральный,17215501000,17615101001,3300400100000,e3bc9262-6bcf-42f8-a0bd-a8a00def58bc
Гусь-Хрустальный,52.8,55.6198751,40.6579929,Владимирская область,,RU-VLA,Центральный,17420000000,17720000001,3300000300000,aa4aa0d7-f97f-4974-9291-c0a530a1ccb6
Камешково,12.0,56.3490152,40.9955183,Владимирская область,,RU-VLA,Центральный,17225501000,17625101001,3300600100000,13cf312e-735f-4faa-8a7d-9a2622d50438
Карабаново,14.9,56.3131822,38.7034257,Владимирская область,,RU-VLA,Центральный,17205505000,17605105001,3300200200000,4f178a20-53a7-4032-b62b-7337315e0fc1
Киржач,26.7,56.1486863,38.8635701,Владимирская область,,RU-VLA,Центральный,17230501000,17630101001,3300700100000,115db243-1238-412f-a2a1-6d53ef30ba9e
Ковров,135.7,56.3554349,41.3170576,Владимирская область,,RU-VLA,Центральный,17425000000,17725000001,3300000400000,0b4978e2-e64c-4db1-b84d-93cf34bdb04b
Кольчугино,42.0,56.3327254,39.391336,Владимирская область,,RU-VLA,Центральный,17240501000,17640101001,3300900100000,8f9faad4-ff93-471d-b0c0-c8e5c0162dee
Костерево,8.1,55.9337222,39.6247398,Владимирская область,,RU-VLA,Центральный,17246510000,17646110001,3301200200000,50b6831d-52f4-4905-93d7-8e42812cd947
Курлово,5.8,55.452698,40.6124108,Владимирская область,,RU-VLA,Центральный,17220515000,17620115001,3300500200000,4f68f8c7-bf54-48a6-8165-0313d75a83c2
Лакинск,14.1,56.0180587,39.956551,Владимирская область,,RU-VLA,Центральный,17250503000,17650110001,3301400200000,67eb946d-db25-4ad2-9852-6436ed35b39e
Меленки,13.5,55.3387515,41.6340046,Владимирская область,,RU-VLA,Центральный,17242501000,17642101001,3301000100000,710f2d29-5c22-4d4d-be27-04713381c676
Муром,107.0,55.5630311,42.0231362,Владимирская область,,RU-VLA,Центральный,17435000000,17735000001,3300000500000,0d7d5d87-f0a6-428f-b655-d3be106c64a2
Петушки,12.5,55.9298134,39.4508075,Владимирская область,,RU-VLA,Центральный,17246501000,17646101001,3301200100000,b7ba6bfc-4b0c-4b05-88bd-267d50b36850
Покров,16.7,55.9166398,39.1734526,Владимирская область,,RU-VLA,Центральный,17246520000,17646120001,3301200300000,f1c2252b-c3da-43f4-86ea-5f05812e99d5
Радужный,18.3,55.9960277,40.3321855,Владимирская область,,RU-VLA,Центральный,17537000000,17737000001,3300000200000,c0ac6992-e48e-4648-b176-f56e7bcda57b
Собинка,17.3,55.9939169,40.0179653,Владимирская область,,RU-VLA,Центральный,17250501000,17650101001,3301400100000,d33946c4-bda9-43a5-b5c4-1157ae28149a
Струнино,12.9,56.3749967,38.5839667,Владимирская область,,RU-VLA,Центральный,17205508000,17605108001,3300200300000,9f490940-079f-4bf9-9931-48952c1bea4f
Судогда,10.1,55.9498056,40.8562939,Владимирская область,,RU-VLA,Центральный,17252501000,17652101001,3301500100000,469a6b26-cb42-4db7-8fe7-758b946956c4
Суздаль,9.6,56.4274441,40.4525692,Владимирская область,,RU-VLA,Центральный,17254501000,17654101001,3301600100000,f347f78e-f991-4b0b-bfbd-600ac927b009
Юрьев-Польский,18.1,56.4937757,39.6680539,Владимирская область,,RU-VLA,Центральный,17256501000,17656101001,3301700100000,4859c31b-fba4-460a-9543-befc791da8a9
Волгоград,1009.0,48.7070042,44.5170339,Волгоградская область,,RU-VGG,Южный,18401000000,18701000001,3400000100000,a52b7389-0cfe-46fb-ae15-298652a64cf8
Волжский,323.9,48.7978209,44.7462538,Волгоградская область,,RU-VGG,Южный,18410000000,18710000001,3400000200000,bc5ed788-84c8-493e-9598-7a15a9f1e4c1
Дубовка,13.7,49.0554742,44.8270085,Волгоградская область,,RU-VGG,Южный,18208501000,18608101001,3400600100000,66a2c07f-45b1-47d2-ab51-fa16288d07a6
Жирновск,15.5,50.9768814,44.7858202,Волгоградская область,,RU-VGG,Южный,18212501000,18612101001,3400800100000,1f9bda6f-45a5-4bf5-b1d8-434d763ea834
Калач-на-Дону,23.6,48.6889024,43.5306303,Волгоградская область,,RU-VGG,Южный,18216501000,18616101001,3401000100000,acc6220a-f624-4880-84d8-670319b0e25d
Камышин,109.9,50.0651529,45.3844202,Волгоградская область,,RU-VGG,Южный,18415000000,18715000001,3400000300000,0f9fb687-8d03-41a2-968f-033a2ba44f2f
Котельниково,20.4,47.6310259,43.1330872,Волгоградская область,,RU-VGG,Южный,18224501000,18624101001,3401400100000,ec52e094-acd0-49ab-bc84-9ce0aa80c7c0
Котово,21.4,50.3205766,44.8030699,Волгоградская область,,RU-VGG,Южный,18226501000,18626101001,3401500100000,6a9dded3-afcf-46ba-9881-5048c3bec5a3
Краснослободск,17.1,48.7068721,44.5630857,Волгоградская область,,RU-VGG,Южный,18251507000,18651107001,3402800200000,68e32d89-51bb-4030-b697-ceca53b9e740
Ленинск,14.4,48.6936061,45.1992692,Волгоградская область,,RU-VGG,Южный,18230501000,18630101001,3401700100000,bee1ee84-fdcf-45b2-8c87-7b015efc4332
Михайловка,57.4,50.0708719,43.2401512,Волгоградская область,,RU-VGG,Южный,18420000000,18720000001,3400000400000,f02dbf6d-57ad-49bc-8011-603bf7126bb5
Николаевск,13.4,50.0165306,45.4731658,Волгоградская область,,RU-VGG,Южный,18236501000,18636101001,3402000100000,8680a7a3-5c93-4c0d-ae64-d828306b2310
Новоаннинский,15.9,50.5296067,42.6666439,Волгоградская область,,RU-VGG,Южный,18238501000,18638101001,3402100100000,254f7c3a-fc21-4405-8779-eee0a7a5c63f
Палласовка,14.5,50.0500944,46.8804277,Волгоградская область,,RU-VGG,Южный,18245501000,18645101,3402400100000,e6891ad3-e99a-48fa-93e5-805da20e849c
Петров Вал,12.4,50.1380557,45.20914,Волгоградская область,,RU-VGG,Южный,18218503000,18618103001,3401100200000,02324444-36d6-4af8-a9af-15b77576adea
Серафимович,8.6,49.5663183,42.7360402,Волгоградская область,,RU-VGG,Южный,18250501000,18650101001,3402700100000,fb921dd7-0b8e-42a6-a5bb-3d1387f090d0
Суровикино,18.2,48.618917,42.8541163,Волгоградская область,,RU-VGG,Южный,18253501000,18653101001,3403000100000,b5bab4ba-e94f-4178-b6f7-67e01c89bec2
Урюпинск,36.7,50.7903789,42.0288513,Волгоградская область,,RU-VGG,Южный,18425000000,18725000001,3400000500000,2e5879fc-35c2-4354-816b-f1fce74ece87
Фролово,36.2,49.7649148,43.6648641,Волгоградская область,,RU-VGG,Южный,18428000000,18728000001,3400000600000,57e3991f-e685-4ba2-9cef-9988e6fa5862
Бабаево,11.4,59.3892583,35.9377058,Вологодская область,,RU-VLG,Северо-Западный,19205501000,19605101001,3500200100000,e61e9415-3cdc-4e44-9cdf-a98662bab04f
Белозерск,8.6,60.0308381,37.7890586,Вологодская область,,RU-VLG,Северо-Западный,19210501000,19610101001,3500400100000,9444e5a5-b164-42b8-b4ff-e3b4c157fc54
Великий Устюг,31.0,60.7603913,46.3054414,Вологодская область,,RU-VLG,Северо-Западный,19410000000,19614101001,3500600100000,9db452cb-452a-4373-9610-a265b3b55653
Вологда,310.3,59.2483905,39.8355662,Вологодская область,,RU-VLG,Северо-Западный,19401000000,19701000001,3500000100000,023484a5-f98d-4849-82e1-b7e0444b54ef
Вытегра,10.2,61.0063465,36.4495137,Вологодская область,,RU-VLG,Северо-Западный,19222501000,19622101001,3500900100000,f66fbc22-445e-42ab-8f53-3de507d877c9
Грязовец,14.8,58.8757553,40.2485362,Вологодская область,,RU-VLG,Северо-Западный,19224501000,19624101001,3501000100000,aeee36bc-969a-4cc6-9fb3-5e237e776068
Кадников,4.5,59.5037764,40.3441148,Вологодская область,,RU-VLG,Северо-Западный,19238504000,19638104001,3501700200000,eb52b8bf-131d-4250-9a09-c0d41a7d42ee
Кириллов,7.5,59.8591523,38.3748782,Вологодская область,,RU-VLG,Северо-Западный,19228501000,19628101001,3501200100000,bfe722ba-8bfd-4dbd-acc5-73da667a0f95
Красавино,5.9,60.9612823,46.4814116,Вологодская область,,RU-VLG,Северо-Западный,19410501000,19614105001,3500600200000,78a546b6-196d-407f-a082-e7e85ff4acad
Никольск,7.9,59.5351837,45.4576137,Вологодская область,,RU-VLG,Северо-Западный,19234501000,19634101001,3501500100000,9b602724-8b73-4979-ae01-3ba8a22c93f2
Сокол,36.4,59.4758605,40.1114187,Вологодская область,,RU-VLG,Северо-Западный,19420000000,19638101001,3501700100000,500b9e8f-79cc-4c35-b497-110f550d6615
Тотьма,9.7,59.9734998,42.7589506,Вологодская область,,RU-VLG,Северо-Западный,19246501000,19646101001,3502000100000,3a0d6df8-c23f-4435-83bb-9f97dd2e3343
Устюжна,8.4,58.8383117,36.4425478,Вологодская область,,RU-VLG,Северо-Западный,19250501000,19650101001,3502200100000,3c2ceeea-04a9-4171-b4dd-341620290258
Харовск,8.8,59.9479423,40.2000298,Вологодская область,,RU-VLG,Северо-Западный,19252501000,19652101001,3502300100000,e5e0513c-fc84-4373-b3ee-05f8382f8110
Череповец,314.8,59.1269212,37.9090497,Вологодская область,,RU-VLG,Северо-Западный,19430000000,19730000001,3500000200000,b4c30848-5181-44b4-88fa-456e1c4aeb0f
Бобров,20.0,51.0901649,40.0318256,Воронежская область,,RU-VOR,Центральный,20204501000,20604101001,3600300100000,0a50bda2-e801-4e11-bcc0-8c6469d46a5d
Богучар,11.0,49.9352454,40.5590801,Воронежская область,,RU-VOR,Центральный,20205501000,20605101001,3600400100000,33b88f52-819d-4ba5-aa70-3fe4ccfd33d6
Борисоглебск,59.9,51.3655754,42.1008334,Воронежская область,,RU-VOR,Центральный,20410000000,20710000001,3600500100000,e5c49f70-5235-49ef-a16b-816114b36566
Бутурлиновка,24.0,50.8311818,40.5976923,Воронежская область,,RU-VOR,Центральный,20208501000,20608101001,3600600100000,b3c350d7-8c81-4016-b198-f197536e8321
Воронеж,1058.3,51.6593332,39.1969229,Воронежская область,,RU-VOR,Центральный,20401000000,20701000001,3600000100000,5bf5ddff-6353-4a3d-80c4-6fb27f00c6c1
Калач,18.2,50.4242134,41.0162014,Воронежская область,,RU-VOR,Центральный,20215501000,20615101001,3601100100000,57a863b5-02a7-482a-8320-a3d165c4bfd0
Лиски,53.5,50.9945626,39.5184909,Воронежская область,,RU-VOR,Центральный,20221501000,20621101001,3601500100000,e0a82358-88c2-44ab-b402-c450e1aa52a8
Нововоронеж,31.5,51.3091524,39.2162843,Воронежская область,,RU-VOR,Центральный,20427000000,20727000001,3600000300000,c7cdacb9-6a1e-4402-8bc6-6ec36a42d05c
Новохоперск,5.9,51.0952211,41.6173404,Воронежская область,,RU-VOR,Центральный,20227501000,20627101001,3601800100000,43fe280f-6fa3-4a06-8daf-94586e2bea44
Острогожск,31.8,50.8677905,39.0407746,Воронежская область,,RU-VOR,Центральный,20231501000,20631101001,3602000100000,8434550d-dd9b-4bc7-8e5b-d43a991753e2
Павловск,24.5,50.453455,40.136874,Воронежская область,,RU-VOR,Центральный,20233501000,20633101001,3602100100000,f4a89d85-b770-4d58-b205-31165a9958b8
Поворино,16.7,51.1954419,42.2472726,Воронежская область,,RU-VOR,Центральный,20239501000,20639101001,3602400100000,9cb55edf-0fb2-46af-8f00-02b15c2f1644
Россошь,62.6,50.1701949,39.6226965,Воронежская область,,RU-VOR,Центральный,20247501000,20647101001,3602800100000,1ed74fcf-2dd0-460a-99b9-029ca382517d
Семилуки,27.0,51.6951644,39.0190454,Воронежская область,,RU-VOR,Центральный,20249501000,20649101001,3602900100000,15d507b5-f67e-4ee6-9f25-683562699fac
Эртиль,10.1,51.830932,40.8074182,Воронежская область,,RU-VOR,Центральный,20258501000,20658101001,3603300100000,fdbadb36-e4f6-4843-8f1f-80bd4fb4381e
Биробиджан,71.8,48.7946446,132.9217207,Еврейская автономная область,,RU-YEV,Дальневосточный,99401000000,99701000001,7900000100000,5d133391-46ee-496b-83a6-efeeaa903643
Облучье,8.4,49.0189345,131.0540102,Еврейская автономная область,,RU-YEV,Дальневосточный,99220501000,99620101001,7900300100000,b60c1e9f-9355-47ef-b5a3-82906d074bd4
Балей,10.7,51.5823759,116.6379549,Забайкальский край,,RU-ZAB,Дальневосточный,76206501000,76606101001,7500400100000,29a51a64-5ca3-4cc6-87ff-9cdfcc17642e
Борзя,29.2,50.3876058,116.5234779,Забайкальский край,,RU-ZAB,Дальневосточный,76209501000,76609101001,7500500100000,d4b135b9-4504-4bae-8585-da058d350f58
Краснокаменск,51.4,50.0929703,118.0323936,Забайкальский край,,RU-ZAB,Дальневосточный,76221501000,76621101001,7501100100000,3c9d5e9e-2922-4e9e-9e49-dbe6faf01fb2
Могоча,13.0,53.7361398,119.7660867,Забайкальский край,,RU-ZAB,Дальневосточный,76226501000,76626101001,7501400100000,29eb6b99-27ad-493c-9fd1-a83fe8acdf24
Нерчинск,14.7,51.9594977,116.5852383,Забайкальский край,,RU-ZAB,Дальневосточный,76228501000,76628101,7501500100000,ba325548-ac92-4a21-904b-bb535e5fe249
Петровск-Забайкальский,15.8,51.2748592,108.846681,Забайкальский край,,RU-ZAB,Дальневосточный,76236501000,76715000001,7501900100000,b26bb2c1-f79b-4c97-9d2d-e73790cfe622
Сретенск,6.4,52.2461454,117.7117842,Забайкальский край,,RU-ZAB,Дальневосточный,76240501000,76640101001,7502100100000,f9dd7993-4953-4980-bbcc-2666b94b2a06
Хилок,10.3,51.3634856,110.4590898,Забайкальский край,,RU-ZAB,Дальневосточный,76247501000,76647101001,7502500100000,a4b18a69-c5df-4022-ba9b-a29f99acfa42
Чита,351.8,52.0340142,113.4994,Забайкальский край,,RU-ZAB,Дальневосточный,76401000000,76701000001,7500000100000,2d9abaa6-85a6-4f1f-a1bd-14b76ec17d9c
Шилка,12.5,51.8497035,116.0334461,Забайкальский край,,RU-ZAB,Дальневосточный,76254501000,76654101001,7502800100000,69efa85f-c9d7-44bb-bcda-95205cd1a647
Вичуга,33.3,57.2044698,41.9132201,Ивановская область,,RU-IVA,Центральный,24403000000,24703000001,3700300100000,3d518b4e-86b2-48d5-bcf3-48f107165918
Гаврилов Посад,5.6,56.5586946,40.1228906,Ивановская область,,RU-IVA,Центральный,24203501000,24603101001,3700400100000,3f81927e-bc4b-45c7-a962-b80c0e216115
Заволжск,9.6,57.4918141,42.1375625,Ивановская область,,RU-IVA,Центральный,24205501000,24605101001,3700500100000,3bf1c329-e556-4d56-82d0-3b1b42b298da
Иваново,404.6,56.9993792,40.9728272,Ивановская область,,RU-IVA,Центральный,24401000000,24701000001,3700000100000,40c6863e-2a5f-4033-a377-3416533948bd
Кинешма,81.0,57.4425463,42.168914,Ивановская область,,RU-IVA,Центральный,24405000000,24705000001,3700000200000,df284e77-a45c-411d-8901-94c91f4a92e5
Комсомольск,8.0,57.0273052,40.3776851,Ивановская область,,RU-IVA,Центральный,24213501000,24613101001,3700800100000,d812b7bf-68de-4e11-95d6-39f7c8ec111e
Кохма,30.2,56.9324606,41.0931657,Ивановская область,,RU-IVA,Центральный,24207504000,24706000001,3700100200000,022e301b-514f-477f-9d1e-f60430c40429
Наволоки,9.1,57.4679066,41.9608002,Ивановская область,,RU-IVA,Центральный,24211504000,24611104001,3700700200000,36d31ef0-a525-4be4-a6e9-28ced781dfae
Плес,1.7,57.4606031,41.5122672,Ивановская область,,RU-IVA,Центральный,24220504000,24620104001,3701300200000,8bb29a7a-de9c-4c21-ad15-3af39f0a41fa
Приволжск,15.3,57.3805743,41.2808565,Ивановская область,,RU-IVA,Центральный,24220506000,24620106001,3701300100000,43706edd-5cf4-4400-8e60-03ea3660c25f
Пучеж,6.3,56.9820688,43.1683321,Ивановская область,,RU-IVA,Центральный,24221501000,24621101001,3701400100000,a85feb12-89e9-441d-956a-8510493cdc8d
Родники,23.9,57.1025975,41.7298834,Ивановская область,,RU-IVA,Центральный,24223501000,24623101001,3701500100000,90328f6e-d961-48ba-ab03-366d93df3c07
Тейково,31.8,56.8542719,40.5353874,Ивановская область,,RU-IVA,Центральный,24407000000,24707000001,3701700100000,09a16212-dcce-4f9a-be1a-515911beaba3
Фурманов,33.2,57.2539276,41.1054432,Ивановская область,,RU-IVA,Центральный,24231000000,24631101001,3701800100000,9d56ad01-abe9-4f14-89e5-9af4544b94b2
Шуя,57.0,56.8560234,41.3800939,Ивановская область,,RU-IVA,Центральный,24411000000,24711000001,3701900100000,a6c7e92c-79cf-4b47-beb6-40192295c559
Южа,12.2,56.5926877,42.0458099,Ивановская область,,RU-IVA,Центральный,24235501000,24635101001,3702000100000,16c1333c-8766-4135-a29a-e08f959e60bc
Юрьевец,7.9,57.3177781,43.1110401,Ивановская область,,RU-IVA,Центральный,24237501000,24637101001,3702100100000,be9d618e-8dc4-498f-aed6-03ce38f82683
Алзамай,5.7,55.5551233,98.6643699,Иркутская область,,RU-IRK,Сибирский,25228508000,25628105001,3801600200000,a7812582-bd5d-4d13-b284-d2b052265e9d
Ангарск,224.6,52.544879,103.888543,Иркутская область,,RU-IRK,Сибирский,25203501000,25703000001,3800000400000,82b6b7c8-82a4-44b2-8bc7-691373706b89
Байкальск,12.5,51.5230393,104.1487532,Иркутская область,,RU-IRK,Сибирский,25234508000,25634108001,3801800200000,cd4477e8-3335-442a-a0a4-9429a52f5c52
Бирюсинск,8.4,55.9609167,97.8205348,Иркутская область,,RU-IRK,Сибирский,25236508000,25636105001,3801900200000,5b646190-2037-409f-bf0f-6fb8194a0581
Бодайбо,12.0,57.8468636,114.1866287,Иркутская область,,RU-IRK,Сибирский,25202501000,25602101001,3800000600000,8ace6ae4-7a35-494a-bfbd-9a743a929c39
Братск,226.3,56.1513108,101.6340035,Иркутская область,,RU-IRK,Сибирский,25414000000,25714000001,3800000500000,bdf6b629-b33e-4cfa-b4b2-7f693e1d821c
Вихоревка,20.8,56.1208145,101.1702926,Иркутская область,,RU-IRK,Сибирский,25204503000,25604103001,3800500200000,04bc8726-0523-4aeb-8450-fe07ff425372
Железногорск-Илимский,22.9,56.5847888,104.114275,Иркутская область,,RU-IRK,Сибирский,25226501000,25626101001,3801500100000,31ba5d12-ae5b-4cc0-8892-2a504423ee61
Зима,30.5,53.920693,102.0491772,Иркутская область,,RU-IRK,Сибирский,25420000000,25720000001,3800000700000,7c3452ac-3953-4b78-a80c-64ec839620a6
Иркутск,623.6,52.2864036,104.2807466,Иркутская область,,RU-IRK,Сибирский,25401000000,25701000001,3800000300000,8eeed222-72e7-47c3-ab3a-9a553c31cf72
Киренск,11.0,57.7756595,108.1109412,Иркутская область,,RU-IRK,Сибирский,25220501000,25620101001,3801200100000,1ea67233-631c-49bf-8d7c-1a17fc785e97
Нижнеудинск,33.6,54.8968931,99.0314056,Иркутская область,,RU-IRK,Сибирский,25228501000,25628101001,3800000800000,5d596a21-da89-4820-91ef-6ce3940a0c9f
Саянск,38.8,54.1107238,102.18015,Иркутская область,,RU-IRK,Сибирский,25426000000,25726000001,3800000200000,c21b5e04-ce0f-4f98-b0ac-0ceabc531212
Свирск,12.7,53.0842668,103.3364093,Иркутская область,,RU-IRK,Сибирский,25427000000,25746000001,3800001600000,17e498bd-5f9e-4221-8998-5fa24a35ed2e
Слюдянка,18.2,51.6563983,103.7187545,Иркутская область,,RU-IRK,Сибирский,25234501000,25634101001,3801800100000,31802bef-b635-49b2-866d-1d1006e3081e
Тайшет,32.7,55.9405334,98.0030145,Иркутская область,,RU-IRK,Сибирский,25236501000,25636101001,3800000900000,945ac8e1-b529-4cec-afda-f92c6a6b0f70
Тулун,39.7,54.557162,100.5780603,Иркутская область,,RU-IRK,Сибирский,25432000000,25732000001,3800001000000,869c2c69-e8cd-43ae-9596-e0be50c0fcfe
Усолье-Сибирское,76.0,52.7565808,103.6388109,Иркутская область,,RU-IRK,Сибирский,25436000000,25736000001,3800001100000,ac680034-f7da-4bd8-8374-a5c97aa09516
Усть-Илимск,80.4,57.9430504,102.7415734,Иркутская область,,RU-IRK,Сибирский,25438000000,25738000001,3800001200000,78d11295-77b5-4ac4-b128-582e2989c0a5
Усть-Кут,40.8,56.7928178,105.7757343,Иркутская область,,RU-IRK,Сибирский,25244501000,25644101001,3800001300000,cfb0a55a-3314-42bf-b3d8-5ed5368abdd6
Черемхово,50.1,53.1369095,103.0901268,Иркутская область,,RU-IRK,Сибирский,25445000000,25745000001,3800001400000,f05b68c4-f1c7-4c3d-b557-f1f44a57b85f
Шелехов,48.4,52.2102538,104.0973294,Иркутская область,,RU-IRK,Сибирский,25255501000,25655101001,3800001500000,c727ac3a-e05c-4b81-b8e1-9b1003c28595
Баксан,38.5,43.6819137,43.5345036,Кабардино-Балкарская Республика,,RU-KB,Северо-Кавказский,83403000000,83703000001,700000300000,67851dfd-e142-451a-b6b1-ea5e9bc7f0c1
Майский,26.7,43.6281516,44.0517314,Кабардино-Балкарская Республика,,RU-KB,Северо-Кавказский,83220501000,83620101001,700400100000,e9f48c52-6cc4-47d9-ba6d-e7b12e8e0871
Нальчик,239.6,43.4845464,43.60713,Кабардино-Балкарская Республика,,RU-KB,Северо-Кавказский,83401000000,83701000001,700000100000,913a82e3-b671-43d5-97b4-8a08b8ee2d28
Нарткала,30.6,43.5578075,43.8575925,Кабардино-Балкарская Республика,,RU-KB,Северо-Кавказский,83240501000,83640101001,700700100000,cb0f531d-4831-41c0-a859-3ad1f2e0f70b
Прохладный,58.2,43.7589602,44.0102409,Кабардино-Балкарская Республика,,RU-KB,Северо-Кавказский,83410000000,83710000001,700000200000,22973a33-7a1c-449d-9535-def88bd91ed3
Терек,19.5,43.4839358,44.1402161,Кабардино-Балкарская Республика,,RU-KB,Северо-Кавказский,83235501000,83635101001,700600100000,9886a048-8715-4526-80b1-2f0fd8dd7bdf
Тырныауз,20.6,43.3981585,42.9213582,Кабардино-Балкарская Республика,,RU-KB,Северо-Кавказский,83248501000,83648101001,701000100000,e0ee885d-786e-457e-9568-2def04ee83b0
Чегем,18.4,43.5671525,43.5865792,Кабардино-Балкарская Республика,,RU-KB,Северо-Кавказский,83245501000,83645101001,700800100000,17bfd906-04ef-45f2-abbb-fcf801d0ba84
Багратионовск,6.4,54.3866518,20.6418091,Калининградская область,,RU-KGD,Северо-Западный,27203501000,27703000001,3900200100000,427dc561-3277-43bd-a310-7c1953a3c8bd
Балтийск,33.7,54.6513372,19.9140572,Калининградская область,,RU-KGD,Северо-Западный,27405000000,27705000001,3901500100000,97323948-09db-411c-8e9a-43ad2ec25687
Гвардейск,13.3,54.6588378,21.0501388,Калининградская область,,RU-KGD,Северо-Западный,27206501000,27706000001,3900300100000,8f9e9cc0-711f-470a-9fff-2a65c00c8439
Гурьевск,19.3,54.770638,20.6039767,Калининградская область,,RU-KGD,Северо-Западный,27209501000,27707000001,3900400100000,27bc7f09-4593-4972-950b-231f2a49d44b
Гусев,28.5,54.5915455,22.1942445,Калининградская область,,RU-KGD,Северо-Западный,27212501000,27709000001,3900500100000,66cb21da-0212-4d22-a2a3-f1badcd3a9d4
Зеленоградск,16.5,54.9600185,20.4753652,Калининградская область,,RU-KGD,Северо-Западный,27215501000,27710000001,3900600100000,448d8a42-8ebf-4ca5-a9f2-98efb532630f
Калининград,489.3,54.7074702,20.5073241,Калининградская область,,RU-KGD,Северо-Западный,27401000000,27701000001,3900000100000,df679694-d505-4dd3-b514-4ba48c8a97d8
Краснознаменск,3.1,54.9453423,22.4928745,Калининградская область,,RU-KGD,Северо-Западный,27218501000,27713000001,3900700100000,40c2a58b-8f84-4b30-8a22-038efe4f059a
Ладушкин,3.9,54.5692156,20.1690153,Калининградская область,,RU-KGD,Северо-Западный,27203505000,27711000001,3900000800000,04950f38-5c4c-4989-8b7a-6224795a2b59
Мамоново,8.0,54.4646036,19.9453482,Калининградская область,,RU-KGD,Северо-Западный,27203510000,27712000001,3900000900000,2942ef2d-01b0-4137-8f46-5228e9eedd7f
Неман,10.8,55.0316524,22.0324064,Калининградская область,,RU-KGD,Северо-Западный,27221501000,27714000001,3900800100000,180fcdbd-95b4-41f5-90f5-cbe9b9c83da7
Нестеров,3.9,54.6313814,22.5713736,Калининградская область,,RU-KGD,Северо-Западный,27224501000,27715000001,3900900100000,4fb71afc-f221-454e-9edf-d6fd9ee07418
Озерск,3.8,54.4084705,22.0134438,Калининградская область,,RU-KGD,Северо-Западный,27227501000,27716000001,3901000100000,19620317-39e8-4a09-af7e-67b136ef61fe
Пионерский,12.2,54.9516574,20.2277424,Калининградская область,,RU-KGD,Северо-Западный,27417000000,27717000001,3900000300000,9fee1c1b-9d14-42ea-8ff9-2e903501d43d
Полесск,6.9,54.8625126,21.0998067,Калининградская область,,RU-KGD,Северо-Западный,27230501000,27718000001,3901100100000,27fd5628-fbd7-4641-abed-b213af6029b8
Правдинск,4.0,54.4430986,21.0085269,Калининградская область,,RU-KGD,Северо-Западный,27233501000,27719000001,3901200100000,2b3f4c49-0e5b-44c8-bf56-a335eb551c23
Приморск,1.9,54.7311437,19.9981926,Калининградская область,,RU-KGD,Северо-Западный,27405555000,27705000006,3901500200000,5f19f5f2-55b1-4796-9610-8a73eeefcaf1
Светлогорск,15.2,54.9439286,20.1514295,Калининградская область,,RU-KGD,Северо-Западный,27420000000,27734000001,3901600100000,19436029-357a-435b-8156-b01fba4ea8a5
Светлый,21.6,54.6772897,20.1357595,Калининградская область,,RU-KGD,Северо-Западный,27425000000,27725000001,3900000600000,6d379259-b8d5-4cca-9412-1ded0849fd1a
Славск,4.0,55.0449714,21.6742367,Калининградская область,,RU-KGD,Северо-Западный,27236501000,27727000001,3901300100000,f731c104-431c-494c-b4e8-f97ccaaf71b9
Советск,39.0,55.0809336,21.8886106,Калининградская область,,RU-KGD,Северо-Западный,27430000000,27730000001,3900000700000,e401208f-3469-403f-910b-bba057cf70b2
Черняховск,35.4,54.6244751,21.7969062,Калининградская область,,RU-KGD,Северо-Западный,27239501000,27739000001,3901400100000,acde8f61-fd56-4cec-a4df-1f033e2a63ee
Балабаново,25.6,55.1773714,36.6566951,Калужская область,,RU-KLU,Центральный,29206505000,29606105001,4000400200000,ef65fa9c-6516-4175-a00a-6410a4a6f2d6
Белоусово,10.2,55.0956803,36.677629,Калужская область,,RU-KLU,Центральный,29213507000,29613157001,4000900200000,4601e932-0ca3-474f-a8a6-e67cc034b346
Боровск,10.3,55.2130096,36.4926251,Калужская область,,RU-KLU,Центральный,29206501000,29606101001,4000400100000,db14bfff-fea7-469e-82f4-ccf4209d6753
Ермолино,10.1,55.1971758,36.5952722,Калужская область,,RU-KLU,Центральный,29206507000,29606157001,4000400400000,0c66ce29-8464-40ef-a11d-e8e6df7475fd
Жиздра,5.4,53.7521926,34.7386592,Калужская область,,RU-KLU,Центральный,29212501000,29612101,4000800100000,2073f6df-cf12-455f-818d-cedea8f783fa
Жуков,13.7,55.0301833,36.7394903,Калужская область,,RU-KLU,Центральный,29213501000,29613101001,4000900100000,53f014ee-1074-4f90-b948-9e5219e24b9b
Калуга,332.0,54.5059848,36.2516245,Калужская область,,RU-KLU,Центральный,29401000000,29701000001,4000000100000,b502ae45-897e-4b6f-9776-6ff49740b537
Киров,29.9,54.0790111,34.3076201,Калужская область,,RU-KLU,Центральный,29214501000,29614101001,4001100100000,7c875ac0-5c75-4798-8786-564ccb5bd9f2
Козельск,16.4,54.0347201,35.780768,Калужская область,,RU-KLU,Центральный,29216501000,29616101001,4001200100000,adc77035-406d-4cb4-9bcc-094c89ac67fc
Кондрово,14.6,54.7959473,35.9274842,Калужская область,,RU-KLU,Центральный,29208501000,29608101001,4000600100000,9ea37890-3ec5-4425-8e41-f60d1844335d
Кременки,10.3,54.8862447,37.1168701,Калужская область,,RU-KLU,Центральный,29213510000,29613160001,4000900400000,73c0bcae-5da5-4796-9084-9b9e5905d501
Людиново,37.3,53.8700828,34.4385915,Калужская область,,RU-KLU,Центральный,29220501000,29620101001,4001400100000,e6b8a826-768f-4745-889b-e774c1520c5f
Малоярославец,27.8,55.0177123,36.4633603,Калужская область,,RU-KLU,Центральный,29223501000,29623101001,4001500100000,72cb3a9a-0180-4619-ac08-07e762e58e6f
Медынь,8.2,54.9689785,35.8872168,Калужская область,,RU-KLU,Центральный,29225501000,29625101001,4001600100000,df03aec4-0859-4f40-9f51-90b2ed2f83ef
Мещовск,3.8,54.3191471,35.2816918,Калужская область,,RU-KLU,Центральный,29227501000,29627101001,4001700100000,9b4890ea-75d9-4464-96f1-077c8a9c7e34
Мосальск,4.2,54.4824939,34.9872239,Калужская область,,RU-KLU,Центральный,29229501000,29629101001,4001800100000,4ae6d306-349e-4fb8-9ce9-7c3735d3c4e6
Обнинск,117.4,55.0943144,36.6121639,Калужская область,,RU-KLU,Центральный,29415000000,29715000001,4000000200000,05a647ff-b859-4c93-8c8e-3590110a0085
Сосенский,10.4,54.0566016,35.9621646,Калужская область,,RU-KLU,Центральный,29216504000,29616104001,4001200200000,44326142-0196-4cec-abcb-79853fe6cfd4
Спас-Деменск,4.3,54.409922,34.0189631,Калужская область,,RU-KLU,Центральный,29234501000,29634101001,4000500100000,30745bd5-b803-4327-baf9-006f25353acc
Сухиничи,14.8,54.097296,35.3443568,Калужская область,,RU-KLU,Центральный,29236501000,29636101001,4002000100000,84778f7b-bf8c-45cc-84e1-dfd136368e6a
Таруса,9.2,54.7236477,37.1671,Калужская область,,RU-KLU,Центральный,29238501000,29638101001,4002100100000,31a0a531-a20f-4ccc-a370-551cd9867b0c
Юхнов,5.8,54.7446445,35.2424346,Калужская область,,RU-KLU,Центральный,29250501000,29650101001,4002500100000,503b2859-0304-4e8e-b627-8f611ff27d5e
Вилючинск,22.2,52.9302415,158.4057632,Камчатский край,,RU-KAM,Дальневосточный,30535000000,30735000001,4100000200000,b75a9701-5cd4-4623-99d5-4fa7463ceb47
Елизово,39.3,53.1830375,158.3883548,Камчатский край,,RU-KAM,Дальневосточный,30402000000,30607101001,4100500100000,3da129ee-9b72-45ec-bef9-07b69e1eed4e
Петропавловск-Камчатский,179.6,53.036908,158.6559254,Камчатский край,,RU-KAM,Дальневосточный,30401000000,30701000001,4100000100000,0b3f0723-5fe0-4c23-af44-8082166c6d2e
Карачаевск,20.8,43.7732525,41.9143472,Карачаево-Черкесская Республика,,RU-KC,Северо-Кавказский,91405000000,91705000001,900000200000,cb390fbd-3149-4ac9-b9fb-6af069d51b71
Теберда,8.6,43.4437731,41.7415142,Карачаево-Черкесская Республика,,RU-KC,Северо-Кавказский,91405503000,91705000006,900000300000,2edbb310-a924-44a8-a6d0-c9b825214fcf
Усть-Джегута,30.6,44.0838442,41.9711046,Карачаево-Черкесская Республика,,RU-KC,Северо-Кавказский,91235501000,91635101001,900800100000,5de40749-195c-445b-b65a-fd1c397d1440
Черкесск,123.2,44.2269425,42.0466704,Карачаево-Черкесская Республика,,RU-KC,Северо-Кавказский,91401000000,91701000001,900000100000,2a4a7c93-f3f8-4042-8cbf-e04ab64f5e08
Анжеро-Судженск,68.1,56.0786281,86.0201278,Кемеровская область - Кузбасс,,RU-KEM,Сибирский,32404000000,32704000001,4200000200000,8a5314a4-903e-475c-a4db-8f03db3b793f
Белово,71.2,54.4220968,86.3037373,Кемеровская область - Кузбасс,,RU-KEM,Сибирский,32407000000,32707000001,4200001500000,1346744e-8a64-4712-8939-bb84a1692874
Березовский,45.6,55.6693513,86.2744459,Кемеровская область - Кузбасс,,RU-KEM,Сибирский,32410000000,32710000001,4200000300000,ef6bac92-b712-42ba-942b-515b36b9a32c
Гурьевск,22.4,54.2859263,85.9475985,Кемеровская область - Кузбасс,,RU-KEM,Сибирский,32413000000,32502000001,4200300100000,9924881d-bc20-4e72-8c2e-e4cf415c93c1
Калтан,20.4,53.5210919,87.2771636,Кемеровская область - Кузбасс,,RU-KEM,Сибирский,32415000000,32715000001,4200000400000,5000e677-7d3c-4eec-b01d-f3f192abbd41
Кемерово,556.4,55.3910651,86.0467781,Кемеровская область - Кузбасс,,RU-KEM,Сибирский,32401000000,32701000001,4200000900000,94bb19a3-c1fa-410b-8651-ac1bf7c050cd
Киселевск,86.6,54.0059999,86.6366116,Кемеровская область - Кузбасс,,RU-KEM,Сибирский,32416000000,32716000001,4200000500000,36122f01-1666-42e0-9c65-937787e8ca45
Ленинск-Кузнецкий,94.4,54.6674492,86.1797324,Кемеровская область - Кузбасс,,RU-KEM,Сибирский,32419000000,32719000001,4200001000000,cf600ae8-e376-42ae-bf7c-5aa1875dcd28
Мариинск,37.9,56.2127383,87.7454924,Кемеровская область - Кузбасс,,RU-KEM,Сибирский,32422000000,32616101001,4200700100000,34a2e393-69d3-4258-8daf-a6290a14b06e
Междуреченск,96.3,53.6865289,88.0702754,Кемеровская область - Кузбасс,,RU-KEM,Сибирский,32425000000,32725000001,4200001600000,c6a7e590-04b4-4a01-85fc-b61b63711bba
Мыски,40.8,53.7125695,87.8055646,Кемеровская область - Кузбасс,,RU-KEM,Сибирский,32428000000,32728000001,4200000600000,070a8e7b-038f-48c8-9eed-16a6c03ab899
Новокузнецк,549.4,53.794315,87.2142745,Кемеровская область - Кузбасс,,RU-KEM,Сибирский,32431000000,32731000001,4200001200000,b28b6f6f-1435-444e-95a6-68c499b0d27a
Осинники,41.7,53.5988055,87.3371272,Кемеровская область - Кузбасс,,RU-KEM,Сибирский,32434000000,32734000001,4200000700000,1efff7c4-448a-48c5-b476-c803b4d36842
Полысаево,25.9,54.6055,86.2809208,Кемеровская область - Кузбасс,,RU-KEM,Сибирский,32435000000,32732000001,4200001100000,34ac1b24-f541-4279-abfb-466f80ed1f7b
Прокопьевск,190.3,53.8604265,86.7183577,Кемеровская область - Кузбасс,,RU-KEM,Сибирский,32437000000,32737000001,4200001300000,2d8b9d01-1c4f-4987-8a0b-1eb5080c1f38
Салаир,7.3,54.2351735,85.8030733,Кемеровская область - Кузбасс,,RU-KEM,Сибирский,32413504000,32502000006,4200300200000,e7459805-4536-4037-9113-4b9b53893807
Тайга,23.1,56.0622131,85.6207182,Кемеровская область - Кузбасс,,RU-KEM,Сибирский,32440000000,32740000001,4200000800000,4da6f430-f531-42f5-9176-1f6cf7ba6367
Таштагол,22.9,52.759313,87.8476546,Кемеровская область - Кузбасс,,RU-KEM,Сибирский,32443000000,32627101001,4201200100000,6be8ac27-9aa0-4784-ba97-a15f066995d9
Топки,27.8,55.2764707,85.6152619,Кемеровская область - Кузбасс,,RU-KEM,Сибирский,32446000000,32531000001,4201400100000,5a6d8be0-aa32-4344-9a4d-89fdb4c94ae8
Юрга,80.8,55.7202694,84.8886399,Кемеровская область - Кузбасс,,RU-KEM,Сибирский,32449000000,32749000001,4200001400000,988289f5-d6d0-40d5-a483-55983e11c033
Белая Холуница,10.1,58.8415239,50.8460699,Кировская область,,RU-KIR,Приволжский,33205501000,33605101001,4300400100000,49e2b1b5-771f-4dfd-9428-e74cd055d113
Вятские Поляны,31.9,56.2284817,51.0614855,Кировская область,,RU-KIR,Приволжский,33404000000,33704000001,4300800100000,7ad714c1-1136-4c39-84c1-17e15dbc5aab
Зуевка,10.2,58.4032152,51.1331606,Кировская область,,RU-KIR,Приволжский,33214501000,33614101001,4301000100000,fe3dfa87-0363-4fbf-9a2c-dcfb237f6943
Киров,518.3,58.6035264,49.6679304,Кировская область,,RU-KIR,Приволжский,33401000000,33701000001,4300000100000,452a2ddf-88a1-4e35-8d8d-8635493768d4
Кирово-Чепецк,69.8,58.5559424,50.0316848,Кировская область,,RU-KIR,Приволжский,33407000000,33707000001,4300000400000,3cdc251a-a649-4063-8c51-00ea2f676a95
Кирс,9.2,59.340056,52.2414437,Кировская область,,RU-KIR,Приволжский,33207501000,33607101001,4300600100000,31ed73ca-6927-4243-9618-36de284ab038
Котельнич,22.9,58.3034832,48.3475597,Кировская область,,RU-KIR,Приволжский,33410000000,33710000001,4301400100000,49846fff-046e-4cee-944b-137cb833d67f
Луза,9.9,60.6290609,47.2612445,Кировская область,,RU-KIR,Приволжский,33222501000,33622101001,4301700100000,9e22dc47-e0df-407b-8448-39ca682e3fd6
Малмыж,7.2,56.5243844,50.6782739,Кировская область,,RU-KIR,Приволжский,33223501000,33623101001,4301800100000,2193594d-ddaf-42b6-9dfe-95cda00ba520
Мураши,5.9,59.3955383,48.9638417,Кировская область,,RU-KIR,Приволжский,33224501000,33624101001,4301900100000,20b2bc28-9404-4c1d-9e50-783338c1ea3c
Нолинск,9.6,57.5597284,49.93575,Кировская область,,RU-KIR,Приволжский,33227501000,33627101001,4302200100000,03e15a08-649a-44f9-93fb-0be35ce2fb5f
Омутнинск,21.6,58.6698913,52.1894564,Кировская область,,RU-KIR,Приволжский,33228501000,33628101001,4302300100000,9039bbb5-93a8-4172-b97c-af2b9abbb614
Орлов,6.4,58.5389776,48.8927723,Кировская область,,RU-KIR,Приволжский,33245501000,33645101001,4302600100000,0302ec51-eea9-4343-9248-ce4878ca465e
Слободской,31.9,58.7311574,50.1669249,Кировская область,,RU-KIR,Приволжский,33413000000,33713000001,4303100100000,8effba3d-4f82-45f6-938a-f1eac4405623
Советск,15.2,57.584196,48.9590272,Кировская область,,RU-KIR,Приволжский,33236501000,33636101001,4303200100000,2fa0734f-2b29-49d5-862f-29f15d88a402
Сосновка,10.7,56.2532741,51.2833642,Кировская область,,RU-KIR,Приволжский,33210504000,33610104001,4300800200000,9e9afbb6-8de5-4765-a69f-2c4dfa498006
Уржум,9.8,57.1097477,50.0058097,Кировская область,,RU-KIR,Приволжский,33241501000,33641101001,4303600100000,759037c3-6408-4466-afe4-b10adc4edff4
Яранск,15.5,57.3040326,47.8478737,Кировская область,,RU-KIR,Приволжский,33250501000,33650101001,4304000100000,af4098b9-6200-450a-999f-6e732cbdbac3
Буй,23.2,58.4733277,41.5306822,Костромская область,,RU-KOS,Центральный,34405000000,34705000001,4400300100000,9180ffd0-7f8d-4fdb-a284-583f27e378eb
Волгореченск,16.3,57.4424559,41.1594201,Костромская область,,RU-KOS,Центральный,34406000000,34706000001,4400000200000,40eb94b1-c51e-455c-92af-7dafaaa92caa
Галич,16.8,58.3828191,42.3654013,Костромская область,,RU-KOS,Центральный,34408000000,34708000001,4400500100000,f2bc7c4a-cf05-48da-aed1-9abd3c57925b
Кологрив,2.9,58.8269323,44.3184927,Костромская область,,RU-KOS,Центральный,34212501000,34612101001,4400700100000,2382db41-3085-4e55-a612-d597535ae960
Кострома,276.9,57.768,40.927,Костромская область,,RU-KOS,Центральный,34401000000,34701000001,4400000300000,14c73394-b886-40a9-9e5c-547cfd4d6aad
Макарьев,6.4,57.8807152,43.8014197,Костромская область,,RU-KOS,Центральный,34218501000,34618101001,4400900100000,dda6ff96-ff7e-4ea0-a9eb-6bfefe3b1ec8
Мантурово,15.0,58.3265441,44.757494,Костромская область,,RU-KOS,Центральный,34414000000,34714000001,4401000100000,b045e8f1-b705-4211-862a-101df62b4feb
Нерехта,20.9,57.4543369,40.5723598,Костромская область,,RU-KOS,Центральный,34420000000,34626101001,4401300100000,d8fcde72-38b9-4032-9670-fa496983e62f
Нея,8.6,58.2943349,43.8780948,Костромская область,,RU-KOS,Центральный,34422000000,34624101,4401200100000,39d5f8b9-551c-42ee-8fbc-d44ceb427b47
Солигалич,5.9,59.0784867,42.2878423,Костромская область,,RU-KOS,Центральный,34240501000,34640101001,4402000100000,35df6629-3c19-4285-8a6c-559750ec36ae
Чухлома,4.9,58.753421,42.6884958,Костромская область,,RU-KOS,Центральный,34246501000,34646101001,4402300100000,fbadac52-08d8-46f2-b2c6-d272b79f36c1
Шарья,23.5,58.3760542,45.4062414,Костромская область,,RU-KOS,Центральный,34430000000,34730000001,4402400100000,c78b9b9e-ace7-46d0-9f6f-c259d7f65e4f
Абинск,39.1,44.8679655,38.1618157,Краснодарский край,,RU-KDA,Южный,3201501000,3601101001,2300200100000,ecd4abbc-79eb-4dd9-b02d-b10760fbc4ff
Анапа,88.9,44.8950433,37.3163282,Краснодарский край,,RU-KDA,Южный,3403000000,3703000001,2300300100000,eeb7a0a7-3bbf-4f00-8a03-a7eabc257bed
Апшеронск,39.5,44.4584006,39.7299824,Краснодарский край,,RU-KDA,Южный,3205501000,3605101001,2300400100000,7b9a7eb9-0d6d-4135-ad1c-3c059db9f386
Армавир,189.0,45.0012149,41.1324168,Краснодарский край,,RU-KDA,Южный,3405000000,3705000001,2300000200000,fc9c55d0-c66e-455e-8034-b0944b025c38
Белореченск,51.6,44.7651876,39.8781494,Краснодарский край,,RU-KDA,Южный,3406000000,3608101001,2300600100000,ce9dccce-d0a3-49c4-a934-3f8de7fbed2a
Геленджик,76.8,44.5630007,38.0790852,Краснодарский край,,RU-KDA,Южный,3408000000,3708000001,2300000300000,e157b9c0-f908-48bc-a1d7-39c482a501a5
Горячий Ключ,40.3,44.6344864,39.1354738,Краснодарский край,,RU-KDA,Южный,3409000000,3709000001,2300000400000,298ebb96-d9c3-4809-b466-386c778234a5
Гулькевичи,34.3,45.3605121,40.6918389,Краснодарский край,,RU-KDA,Южный,3213501000,3613101001,2300900100000,3039644e-5690-43b6-abbc-2d190f6dcecf
Ейск,83.1,46.71157,38.2763895,Краснодарский край,,RU-KDA,Южный,3411000000,3616101001,2301100100000,d22840fe-89f7-4f1a-8591-c51b87a7aec2
Кореновск,42.4,45.4641703,39.458949,Краснодарский край,,RU-KDA,Южный,3221501000,3621101001,2301500100000,76e1af12-0fae-42b0-8771-02191d803ad0
Краснодар,932.6,45.0401604,38.9759647,Краснодарский край,,RU-KDA,Южный,3401000000,3701000001,2300000100000,7dfa745e-aa19-4688-b121-b655c11e482f
Кропоткин,77.7,45.4333007,40.5727951,Краснодарский край,,RU-KDA,Южный,3414000000,3618101001,2301200100000,a4f6512e-2ee9-4250-b241-b58504a886b4
Крымск,57.9,44.9344404,37.9855795,Краснодарский край,,RU-KDA,Южный,3415000000,3625101001,2301800100000,ae6c6804-3c18-4337-bb6e-7479a8cb64f6
Курганинск,48.2,44.8877025,40.5913245,Краснодарский край,,RU-KDA,Южный,3227501000,3627101001,2301900100000,2c58f372-aac8-4645-b41a-f39bdffef373
Лабинск,59.3,44.6354363,40.7245341,Краснодарский край,,RU-KDA,Южный,3417000000,3630101001,2302100100000,0ec1acd4-d7bb-49f7-87c2-d66edb24f587
Новокубанск,35.2,45.1038699,41.0475175,Краснодарский край,,RU-KDA,Южный,3234501000,3634101001,2302400100000,38dd5f45-0a56-4554-93d8-3edfcdf000dd
Новороссийск,275.0,44.7235026,37.7686135,Краснодарский край,,RU-KDA,Южный,3420000000,3720000001,2300000600000,16ac039a-5257-4715-a8c5-d6bd9e617b53
Приморско-Ахтарск,32.3,46.0515432,38.1704875,Краснодарский край,,RU-KDA,Южный,3241501000,3641101001,2302800100000,d9efcf77-c371-434d-a41e-f20e3b4c83c0
Славянск-на-Кубани,67.9,45.2603626,38.1259774,Краснодарский край,,RU-KDA,Южный,3423000000,3645101001,2303000100000,06e2b3b8-c02c-4722-887f-168236ae5382
Сочи,443.6,43.5854551,39.7231548,Краснодарский край,,RU-KDA,Южный,3426000000,3726000001,2300000700000,79da737a-603b-4c19-9b54-9114c96fb912
Темрюк,41.4,45.2610949,37.4454412,Краснодарский край,,RU-KDA,Южный,3251501000,3651101001,2303300100000,3d6724a2-9641-44e6-bc69-097d93c01cb9
Тимашевск,50.8,45.615923,38.9351837,Краснодарский край,,RU-KDA,Южный,3253501000,3653101001,2303400100000,f09d518d-5617-476f-8c76-877899375202
Тихорецк,57.1,45.8546345,40.1260267,Краснодарский край,,RU-KDA,Южный,3429000000,3654101001,2303500100000,1d3511c8-b1dc-49c5-b5fb-3533ed4ce3c4
Туапсе,61.2,44.1105335,39.0824904,Краснодарский край,,RU-KDA,Южный,3432000000,3655101001,2303600100000,d0e68eaf-5ea0-4e65-81b6-b6f55c4df6f5
Усть-Лабинск,39.5,45.2227359,39.6929577,Краснодарский край,,RU-KDA,Южный,3257501000,3657101001,2303800100000,f5743b34-7858-46b4-99ca-050a4efa356d
Хадыженск,22.2,44.4122963,39.5320258,Краснодарский край,,RU-KDA,Южный,3205509000,3605109001,2300400200000,e27ea530-bc56-43b3-8ff7-24db68ae2760
Артемовск,1.6,54.3473075,93.4358377,Красноярский край,,RU-KYA,Сибирский,4230502000,4630102,2402400200000,d0d7a2fa-5bdc-4944-8047-75e80e4e883c
Ачинск,105.5,56.253907,90.4794397,Красноярский край,,RU-KYA,Сибирский,4403000000,4703000001,2400001200000,c3689d32-dea5-49c8-b69b-b8d2daa1d36b
Боготол,19.6,56.2098468,89.5299336,Красноярский край,,RU-KYA,Сибирский,4406000000,4706000001,2400001300000,cb56cf76-4a34-428d-8244-a802414d5fac
Бородино,16.1,55.9054121,94.9020967,Красноярский край,,RU-KYA,Сибирский,4407000000,4707000001,2400000200000,78d7587f-ef26-48dc-81c6-d3ff445c9c8b
Дивногорск,29.2,55.9576784,92.3800687,Красноярский край,,RU-KYA,Сибирский,4409000000,4709000001,2400000300000,76cc6918-6b7c-42b4-80da-4635d97d0da1
Дудинка,20.8,69.4031364,86.1907218,Красноярский край,,RU-KYA,Сибирский,4253501000,4653101001,2404800100000,80b72eaa-bcf7-4759-b291-09ee5e8b3377
Енисейск,17.8,58.4485261,92.1651083,Красноярский край,,RU-KYA,Сибирский,4412000000,4712000001,2400001400000,6eb21d40-5098-49bc-8b08-ac1a2805d22b
Железногорск,82.6,56.2529035,93.532273,Красноярский край,,RU-KYA,Сибирский,4535000000,4735000001,2400000400000,e532b3c3-d300-4585-ada6-40e7900c2abf
Заозерный,10.2,55.9617752,94.7091491,Красноярский край,,RU-KYA,Сибирский,4247501000,4647101001,2403301500000,1f8ea2c9-d6f7-4c30-b76d-2aa81640732e
Зеленогорск,61.6,56.1131564,94.5888103,Красноярский край,,RU-KYA,Сибирский,4537000000,4737000001,2400000500000,38f208d6-6f29-4d30-b826-b42e8beecc67
Игарка,4.3,67.4666901,86.5812794,Красноярский край,,RU-KYA,Сибирский,4254501000,4654117001,2403801700000,59a84d36-af93-4e61-aac4-999431645666
Иланский,14.9,56.2374037,96.067267,Красноярский край,,RU-KYA,Сибирский,4218501000,4618101001,2401600100000,8fa29485-6bce-450c-8c5c-26b8ab682bde
Канск,88.9,56.2051282,95.7051096,Красноярский край,,RU-KYA,Сибирский,4420000000,4720000001,2400001600000,75917770-c4cb-44d8-afcc-8a6d395c3bc2
Кодинск,15.7,58.6032644,99.1797962,Красноярский край,,RU-KYA,Сибирский,4224501000,4624101001,2402100100000,a97aba0e-9624-4e6c-8296-4e5fa103ddf0
Красноярск,1093.8,56.0093879,92.8524806,Красноярский край,,RU-KYA,Сибирский,4401000000,4701000001,2400000100000,9b968c73-f4d4-4012-8da8-3dacd4d4c1bd
Лесосибирск,59.3,58.221681,92.5037872,Красноярский край,,RU-KYA,Сибирский,4422000000,4722000001,2400000800000,2ddd48d6-e95b-4972-a34e-8586ed507763
Минусинск,67.9,53.7104586,91.6872907,Красноярский край,,RU-KYA,Сибирский,4423000000,4723000001,2400001700000,5cfaf0c0-8f59-4321-9a5b-4b1c51b3779f
Назарово,49.7,56.0113799,90.4168775,Красноярский край,,RU-KYA,Сибирский,4426000000,4726000001,2400001800000,ab0a1754-5ba1-48bb-8960-475c7fbc9feb
Норильск,181.8,69.3489978,88.2009846,Красноярский край,,RU-KYA,Сибирский,4429000000,4729000001,2400000900000,d301a980-4a45-4066-9a20-4e783856a562
Сосновоборск,41.1,56.1202647,93.3354121,Красноярский край,,RU-KYA,Сибирский,4433000000,4733000001,2400001000000,a139c8ba-831e-4ee5-87a9-1eead6984288
Ужур,15.3,55.3141969,89.8333918,Красноярский край,,RU-KYA,Сибирский,4256501000,4656101001,2404000100000,2730ee56-f5f7-472d-9e58-04c0b692bb8d
Уяр,11.9,55.8131263,94.3282601,Красноярский край,,RU-KYA,Сибирский,4257501000,4657101001,2404100100000,aab80404-c16d-43b2-92d4-eb06639f37c2
Шарыпово,36.7,55.5389739,89.1801044,Красноярский край,,RU-KYA,Сибирский,4440000000,4740000001,2400001900000,e21e9175-86f9-4e24-b129-abdee0f956dc
Далматово,12.2,56.262114,62.9387011,Курганская область,,RU-KGN,Уральский,37208501000,37608101001,4500500100000,7a5390a0-3cde-4616-92f4-8f59b9a4ad5c
Катайск,12.4,56.290809,62.5800359,Курганская область,,RU-KGN,Уральский,37212501000,37612101001,4500800100000,a0d524d7-5863-4a73-be5b-c165ad2f5e74
Курган,312.4,55.4443883,65.3161963,Курганская область,,RU-KGN,Уральский,37401000000,37701000001,4500000100000,3bbda77d-ba3f-4457-9d44-c440815cda89
Куртамыш,16.5,54.9368539,64.4203722,Курганская область,,RU-KGN,Уральский,37216501000,37616101001,4501000100000,167681ea-0c54-48e2-8c4b-c03f71c9c248
Макушино,7.7,55.2153947,67.2451705,Курганская область,,RU-KGN,Уральский,37220501000,37520000001,4501200100000,fe024a51-2da6-4ce6-b727-493a829741ad
Петухово,10.0,55.0650077,67.8873408,Курганская область,,RU-KGN,Уральский,37226501000,37626101001,4501500100000,a476869f-895d-4764-8c88-c406a092f124
Шадринск,74.7,56.0870344,63.6297182,Курганская область,,RU-KGN,Уральский,37405000000,37705000001,4500000200000,7870abeb-8b0f-4899-920b-3ab8ff6024c0
Шумиха,17.2,55.2280246,63.2901272,Курганская область,,RU-KGN,Уральский,37242501000,37542000001,4502300100000,79685d02-4ac3-42a0-905d-f123918ca296
Щучье,9.5,55.2087637,62.7478548,Курганская область,,RU-KGN,Уральский,37244501000,37644101001,4502400100000,a7b4ee16-32cf-4f35-b1c7-f7ab4e458823
Дмитриев-Льговский,6.3,52.1268464,35.0739038,Курская область,,RU-KRS,Центральный,38208501000,38608101001,4600600100000,d3ce7d17-c746-4ea3-a564-34903b79a3fd
Железногорск,100.4,52.3380202,35.3516867,Курская область,,RU-KRS,Центральный,38405000000,38705000001,4600000300000,b73b7c50-112e-4b04-82df-1e0cea13de4b
Курск,453.0,51.7303637,36.1925603,Курская область,,RU-KRS,Центральный,38401000000,38701000001,4600000100000,d790c72e-479b-4da2-90d7-842b1712a71c
Курчатов,38.1,51.6604083,35.6572224,Курская область,,RU-KRS,Центральный,38408000000,38708000001,4600000200000,a6d4bd96-8c96-4c15-86df-73087f55534d
Льгов,18.1,51.6597148,35.2612491,Курская область,,RU-KRS,Центральный,38410000000,38710000001,4600000400000,6fe805e1-1dde-42cd-821e-173ffe50885d
Обоянь,13.2,51.2119324,36.2755133,Курская область,,RU-KRS,Центральный,38226501000,38626101001,4601600100000,60d797fd-62b0-4705-9f5b-aa0a67c5c749
Рыльск,16.0,51.5681314,34.6802597,Курская область,,RU-KRS,Центральный,38234501000,38634101001,4602000100000,fa2b3c62-6e92-4155-a981-d19ea4999342
Суджа,5.6,51.1918927,35.2720915,Курская область,,RU-KRS,Центральный,38240501000,38640101001,4602300100000,abd43820-a1d4-4e16-adb4-8532959b6e98
Фатеж,6.1,52.0917728,35.8538706,Курская область,,RU-KRS,Центральный,38244501000,38644101,4602500100000,f5c96821-4438-461c-b5da-2c812cd0bc0a
Щигры,15.0,51.8786014,36.8910945,Курская область,,RU-KRS,Центральный,38415000000,38715000001,4600000500000,9382c84c-3d08-4136-a674-9402da0b9e40
Бокситогорск,15.1,59.4734797,33.845688,Ленинградская область,,RU-LEN,Северо-Западный,41203501000,41603101001,4700200100000,1a12dc30-ca4c-480f-89dd-31452648b493
Волосово,11.8,59.4445408,29.4923355,Ленинградская область,,RU-LEN,Северо-Западный,41206501000,41606101001,4700300100000,eb8a9d09-6728-43fe-b3d1-21a2c804b40c
Волхов,44.3,59.9005958,32.3520756,Ленинградская область,,RU-LEN,Северо-Западный,41209501000,41609101001,4700400100000,d77089df-c8ed-464d-a26b-69ce42383a0f
Всеволожск,74.7,60.0191278,30.6456718,Ленинградская область,,RU-LEN,Северо-Западный,41212501000,41612101001,4700500100000,c70a5280-c482-4f6e-801a-cdd6851eab50
Выборг,75.4,60.7130801,28.7328336,Ленинградская область,,RU-LEN,Северо-Западный,41215501000,41615101001,4700600100000,a4a3e3af-ce5a-4eba-9aae-36c350fa7fec
Высоцк,1.1,60.6296236,28.5709314,Ленинградская область,,RU-LEN,Северо-Западный,41215504000,41615104001,4700600200000,f0a4b813-7189-4bd4-8a3a-aaa7fbed4711
Гатчина,91.7,59.565237,30.1282473,Ленинградская область,,RU-LEN,Северо-Западный,41218501000,41618101001,4700700100000,d193a2f8-4ea1-406a-ba9a-698ae19caeb7
Ивангород,9.5,59.3766119,28.2231659,Ленинградская область,,RU-LEN,Северо-Западный,41221505000,41621102001,4700801100000,752d9929-945c-4464-ae38-20a626108da9
Каменногорск,6.3,60.950855,29.1308372,Ленинградская область,,RU-LEN,Северо-Западный,41215506000,41615106,4700600300000,58399f33-3e18-4921-950a-ac0fa5f9e97c
Кингисепп,45.2,59.3740435,28.6112444,Ленинградская область,,RU-LEN,Северо-Западный,41221501000,41621101001,4700800100000,ef14bc6b-dd76-4264-bb40-c0fd8a60985b
Кириши,50.5,59.4742862,32.0624947,Ленинградская область,,RU-LEN,Северо-Западный,41224501000,41624101001,4700900100000,52da70f1-08b0-4b4c-9d22-d67a62bc2aa5
Кировск,26.9,59.8754216,30.981364,Ленинградская область,,RU-LEN,Северо-Западный,41225501000,41625101001,4701000100000,a1535e5e-c151-431a-a4c4-954d4545e37a
Коммунар,22.2,59.6215133,30.3934125,Ленинградская область,,RU-LEN,Северо-Западный,41218505000,41618105001,4700700200000,459dca99-04ff-44fb-af9f-7e2100ec28ac
Кудрово,41.1,59.9075226,30.5121008,Ленинградская область,,RU-LEN,Северо-Западный,41212503000,41612155005,4700511600000,98cd19c4-e172-4fa3-a81d-7caedeec669b
Лодейное Поле,19.0,60.7320936,33.5521022,Ленинградская область,,RU-LEN,Северо-Западный,41227501000,41627101001,4701100100000,5f52edf9-92aa-4e69-9314-e629c45ec1d5
Луга,34.6,58.7374031,29.8465776,Ленинградская область,,RU-LEN,Северо-Западный,41233501000,41633101001,4701300100000,d9135f5d-627e-441d-b208-9087ee0367dd
Любань,4.4,59.3493847,31.2484801,Ленинградская область,,RU-LEN,Северо-Западный,41248505000,41648105001,4701800400000,cda96dc0-75b2-411b-b995-16cc63fcfa05
Мурино,64.9,60.044862,30.4571456,Ленинградская область,,RU-LEN,Северо-Западный,41212504000,41612103001,4700511700000,d73506c5-015c-4c39-929a-696ea8144e16
Никольское,22.4,59.7043309,30.7874571,Ленинградская область,,RU-LEN,Северо-Западный,41248508000,41648108001,4701800300000,43cb88de-fa89-4027-b3ef-84deb2d32ce5
Новая Ладога,8.0,60.1100135,32.3141203,Ленинградская область,,RU-LEN,Северо-Западный,41209504000,41609104001,4700400200000,2145f2cb-3ec2-4c1d-bd52-f84b2858c6a9
Отрадное,25.8,59.7726848,30.7988557,Ленинградская область,,RU-LEN,Северо-Западный,41225504000,41625104001,4701000200000,c4602384-ff62-4e0f-bf4b-06a5c653702b
Пикалево,19.7,59.5132022,34.1772776,Ленинградская область,,RU-LEN,Северо-Западный,41203505000,41603102001,4700200200000,0a243487-acce-4775-979a-5a08e8c62da6
Подпорожье,16.7,60.9127549,34.1567664,Ленинградская область,,RU-LEN,Северо-Западный,41236501000,41636101001,4701400100000,6d13b512-6d25-413a-ab29-3d9ade960f3a
Приморск,5.6,60.3660209,28.6135772,Ленинградская область,,RU-LEN,Северо-Западный,41215508000,41615108001,4700600400000,878aa7cc-76f0-42c8-90f5-3489f43c169c
Приозерск,17.8,61.0330896,30.1587851,Ленинградская область,,RU-LEN,Северо-Западный,41239501000,41639101001,4701500100000,59a9c284-72fb-49e6-8380-10ca044d0bd7
Светогорск,15.2,61.1111282,28.8725865,Ленинградская область,,RU-LEN,Северо-Западный,41215514000,41615114001,4700600500000,d4789972-b71d-4e70-9af8-f4acfcf80c71
Сертолово,56.6,60.1446932,30.2095918,Ленинградская область,,RU-LEN,Северо-Западный,41212505000,41612102001,4700500200000,79b806cd-e36c-48fc-b82c-8cbb5cfd9450
Сланцы,32.2,59.1178185,28.0881475,Ленинградская область,,RU-LEN,Северо-Западный,41242501000,41642101001,4701600100000,a7a1a8e5-45b2-4542-b718-0976702ccd90
Сосновый Бор,67.7,59.8772884,29.1291619,Ленинградская область,,RU-LEN,Северо-Западный,41454000000,41754000001,4700000400000,f4a4b31f-9f0a-4fdb-804c-d67661085eb4
Сясьстрой,12.4,60.1401739,32.5601559,Ленинградская область,,RU-LEN,Северо-Западный,41209508000,41609108001,4700400300000,f59186fa-b4db-4b2d-88b9-e3fde4a90690
Тихвин,58.1,59.6272904,33.5072731,Ленинградская область,,RU-LEN,Северо-Западный,41245501000,41645101001,4701700100000,86ec26f6-d980-4c40-b4ce-77e1638ec8ad
Тосно,36.3,59.5407098,30.877812,Ленинградская область,,RU-LEN,Северо-Западный,41248501000,41648101001,4701800100000,165119d1-6555-4473-8b90-46ec517b4076
Шлиссельбург,14.9,59.9443714,31.0333365,Ленинградская область,,RU-LEN,Северо-Западный,41225503000,41625102001,4701000300000,5a543514-a133-431c-919e-8a61c2261783
Грязи,46.7,52.4874097,39.9331142,Липецкая область,,RU-LIP,Центральный,42206501000,42606101001,4800300100000,f073b28a-b8f8-4eee-adfd-cfbf769c6771
Данков,18.7,53.2577411,39.1456184,Липецкая область,,RU-LIP,Центральный,42209501000,42609101001,4800400100000,ad0cefe8-456d-4cac-bee3-c3e910187f4a
Елец,102.3,52.6152411,38.5289342,Липецкая область,,RU-LIP,Центральный,42415000000,42715000001,4800000200000,8261b161-ceac-4fa2-9fe8-593cb2a28210
Задонск,9.5,52.4004179,38.9205032,Липецкая область,,RU-LIP,Центральный,42224501000,42624101001,4800900100000,4c035f08-697c-4ad0-9c8e-7b7a8a385974
Лебедянь,19.2,53.0156117,39.143536,Липецкая область,,RU-LIP,Центральный,42233501000,42633101001,4801200100000,d8a96228-5392-4c32-98cb-6a7ac20db942
Липецк,508.6,52.610249,39.5947883,Липецкая область,,RU-LIP,Центральный,42401000000,42701000001,4800000100000,eacb5f15-1a2e-432e-904a-ca56bd635f1b
Усмань,19.6,52.0442648,39.726401,Липецкая область,,RU-LIP,Центральный,42248501000,42648101001,4801600100000,1b3ce1ae-6edd-464b-ab82-79237510cd5c
Чаплыгин,11.8,53.24048,39.9670973,Липецкая область,,RU-LIP,Центральный,42256501000,42656101001,4801800100000,4aed94c2-977d-41cc-bc72-312026ec4117
Магадан,92.1,59.5681332,150.8084956,Магаданская область,,RU-MAG,Дальневосточный,44401000000,44701000001,4900000100000,cb8ae35a-93df-4133-b377-50f3698c8b5e
Сусуман,4.4,62.7805882,148.1540281,Магаданская область,,RU-MAG,Дальневосточный,44213501000,44713000001,4900600100000,b617d714-cbce-4abe-bf0d-668be5e3d670
Москва,12655.1,55.7540471,37.620405,Москва,,RU-MOW,Центральный,45000000000,45000000,7700000000000,0c5b2444-70a0-4932-980c-b4dc0d3f02b5
Апрелевка,30.7,55.5276918,37.065143,Московская область,,RU-MOS,Центральный,46450506000,46750000006,5004800300000,17b4ba8a-4300-44e4-bbf7-5f0a8118ddf5
Балашиха,507.4,55.796389,37.938283,Московская область,,RU-MOS,Центральный,46404000000,46704000001,5000003600000,27c5bc66-61bf-4a17-b0cd-ca0eb64192d6
Белоозерский,17.898,55.4595766,38.4389742,Московская область,,RU-MOS,Центральный,46410506000,46710000006,5004400200000,76a108ed-a04d-41d0-a556-39865e793886
Бронницы,22.5,55.4255379,38.264145,Московская область,,RU-MOS,Центральный,46405000000,46705000001,5000000200000,582fae29-5955-4dba-9f77-ebf9a8e60827
Верея,5.1,55.343369,36.185694,Московская область,,RU-MOS,Центральный,46450511000,46750000011,5004800200000,abda86de-97b7-4098-9d09-e1835c6e8797
Видное,77.0,55.551725,37.7061984,Московская область,,RU-MOS,Центральный,46407000000,46707000001,5000002500000,9a72b510-9413-41d8-b076-576fbfd78404
Волоколамск,18.4,56.0356499,35.9585112,Московская область,,RU-MOS,Центральный,46408000000,46708000001,5000006600000,ca8fb626-709c-4851-a8d6-cbfd592c3bf8
Воскресенск,92.9,55.3071519,38.7027953,Московская область,,RU-MOS,Центральный,46410000000,46710000001,5004400000000,555e9f1b-627a-4444-b19e-27fb9d67a093
Высоковск,10.4,56.3359513,36.5251837,Московская область,,RU-MOS,Центральный,46437506000,46737000006,5004700200000,a8ad4e79-a4c9-4f2e-ade5-a7fa3ab0da03
Голицыно,17.5,55.6190582,36.9856793,Московская область,,RU-MOS,Центральный,46455506000,46755000006,5004200200000,963efb34-c804-43b4-9298-8e145d188ed0
Дедовск,30.5,55.8703276,37.1245043,Московская область,,RU-MOS,Центральный,46433506000,46733000006,5004600200000,05b3833e-37b3-470e-bf21-78adf1eec36f
Дзержинский,56.4,55.6240869,37.8440276,Московская область,,RU-MOS,Центральный,46411000000,46711000001,5000002300000,6fa8b59c-cda7-4c98-8b41-e0bcb2867e16
Дмитров,68.8,56.3477457,37.526672,Московская область,,RU-MOS,Центральный,46415000000,46715000001,5004500000000,0d8a246f-6446-403e-91c6-3aec9cdbfc32
Долгопрудный,116.0,55.9385999,37.5101021,Московская область,,RU-MOS,Центральный,46416000000,46716000001,5000002900000,dcf522ad-e032-4db9-9dbb-e30d2cddfadb
Домодедово,137.2,55.4363283,37.7664984,Московская область,,RU-MOS,Центральный,46409000000,46709000001,5000000100000,d177d438-ea69-4169-854c-d4512d7c8ebe
Дрезна,11.3,55.7443143,38.8498479,Московская область,,RU-MOS,Центральный,46457506000,46757000006,5000100100000,70643e37-137c-4e66-a06e-22feb7784740
Дубна,75.0,56.741786,37.1757223,Московская область,,RU-MOS,Центральный,46418000000,46718000001,5000000300000,c86ad06c-c721-4a7e-aa06-f622eed83b6f
Егорьевск,72.8,55.3830113,39.0358317,Московская область,,RU-MOS,Центральный,46422000000,46722000001,5000003900000,17a3426e-add6-4b2e-b4b1-6f36da02b6ab
Жуковский,107.6,55.599803,38.1224298,Московская область,,RU-MOS,Центральный,46425000000,46725000001,5000000500000,fd91f393-4820-437f-a50c-907e9856c374
Зарайск,22.8,54.762456,38.8850978,Московская область,,RU-MOS,Центральный,46429000000,46729000001,5000004600000,98e62df9-591a-45af-876e-471060d057aa
Звенигород,22.3,55.7297089,36.8554029,Московская область,,RU-MOS,Центральный,46455511000,46755000011,5004200400000,4bae8c68-e107-4352-9d4b-f937f90469ac
Ивантеевка,81.3,55.9741665,37.9207539,Московская область,,RU-MOS,Центральный,46432000000,46732000001,5000000700000,e12cf909-779a-4352-af51-7a2a07668f60
Истра,33.6,55.9062267,36.8601454,Московская область,,RU-MOS,Центральный,46433000000,46733000001,5004600000000,f05b2b62-f54c-4b44-aff2-6bc3e55a640c
Кашира,47.4,54.853337,38.1904392,Московская область,,RU-MOS,Центральный,46435000000,46735000001,5000003800000,45b3f9ac-43cd-4bd0-90af-74cf64ea67f7
Клин,79.7,56.3425605,36.7240032,Московская область,,RU-MOS,Центральный,46437000000,46737000001,5004700000000,2365151a-7a78-4af5-a8fb-a4faff856df5
Коломна,140.1,55.102814,38.7531002,Московская область,,RU-MOS,Центральный,46438000000,46738000001,5000002700000,b367fb03-29f9-4dac-8d85-01595cfb6ad9
Королев,225.9,55.9161773,37.8545415,Московская область,,RU-MOS,Центральный,46434000000,46734000001,5000000900000,819d6910-b4d1-474f-ad10-c1fa944dfca4
Котельники,49.0,55.6597925,37.8631156,Московская область,,RU-MOS,Центральный,46444000000,46739000001,5000003200000,67488a01-ccb7-4638-bcad-117db0fbe9a3
Красноармейск,26.3,56.105426,38.140838,Московская область,,RU-MOS,Центральный,46443000000,46743000001,5000001000000,bc5d23ce-e886-4dc7-976c-6b8be6d501d2
Красногорск,175.6,55.8317203,37.3295266,Московская область,,RU-MOS,Центральный,46439000000,46744000001,5000004900000,63fcf18a-365e-451f-baee-8d09ac50b773
Краснозаводск,12.8,56.4409979,38.2320307,Московская область,,RU-MOS,Центральный,46428506000,46728000006,5004100300000,6bec0be0-e5a7-4bf1-907a-9a1dadedc867
Краснознаменск,43.2,55.5978959,37.0393709,Московская область,,RU-MOS,Центральный,46505000000,46706000001,5000001100000,6e8a99b2-e6bd-4169-acb3-f7e6cd53be3b
Кубинка,20.1,55.5754955,36.6951995,Московская область,,RU-MOS,Центральный,46455516000,46755000016,5004200300000,50341359-842b-4ba1-b7f2-398a7b72f829
Куровское,20.6,55.5792277,38.9207723,Московская область,,RU-MOS,Центральный,46457511000,46757000011,5000100200000,9eb64ec8-9b97-465c-8c4d-ae667862dd62
Ликино-Дулево,28.8,55.7078257,38.9578093,Московская область,,RU-MOS,Центральный,46457516000,46757000016,5000100300000,4ae832d1-e532-45a2-b8a7-8f29aa0149e9
Лобня,90.2,56.0328881,37.4614035,Московская область,,RU-MOS,Центральный,46440000000,46740000001,5000001200000,67c493d4-d141-407e-868b-dafc289503f3
Лосино-Петровский,25.4,55.8713214,38.200599,Московская область,,RU-MOS,Центральный,46442000000,46742000001,5000003100000,96c869d9-51a8-4db6-8011-9fc459c9a78c
Луховицы,30.4,54.9652077,39.0260266,Московская область,,RU-MOS,Центральный,46447000000,46747000001,5000004800000,7c6d9ebf-8b6a-4435-a174-eb8018f7c598
Лыткарино,59.2,55.5778163,37.9033507,Московская область,,RU-MOS,Центральный,46441000000,46741000001,5000001300000,bba16a72-09e1-4f3f-93af-df5ecab6714b
Люберцы,205.3,55.7003989,37.9606238,Московская область,,RU-MOS,Центральный,46448000000,46748000001,5000005000000,427b4e19-f221-4abc-8904-81f7409c1ce3
Можайск,30.1,55.5069259,36.024043,Московская область,,RU-MOS,Центральный,46445000000,46745000001,5000005600000,4f86a11c-4258-4859-a227-a79c9ef400ff
Мытищи,235.5,55.9105782,37.7363579,Московская область,,RU-MOS,Центральный,46446000000,46746000001,5000004400000,5f290be7-14ff-4ccd-8bc8-2871a9ca9d5f
Наро-Фоминск,64.9,55.386185,36.734484,Московская область,,RU-MOS,Центральный,46450000000,46750000001,5004800000000,08c78435-6ed8-4d7f-a7ed-3f73e2fa6359
Ногинск,104.0,55.8686133,38.4622104,Московская область,,RU-MOS,Центральный,46451000000,46751000001,5004300000000,40ae04e3-9a69-44ea-8bd7-6c6f08e1a4ca
Одинцово,135.5,55.6789455,37.263686,Московская область,,RU-MOS,Центральный,46455000000,46755000001,5004200000000,6ae8ad9e-aa6c-4849-92d8-8e637059c9b0
Озеры,24.7,54.8541006,38.5599196,Московская область,,RU-MOS,Центральный,46456000000,46756000001,5000004000000,e778b800-b432-4150-82fd-d415911fb700
Орехово-Зуево,118.3,55.8151421,38.9869822,Московская область,,RU-MOS,Центральный,46457000000,46757000001,5000100000000,0f2f2d09-8e7a-4356-bd4d-0b055d802e7b
Павловский Посад,63.6,55.7807244,38.6596983,Московская область,,RU-MOS,Центральный,46459000000,46759000001,5000004700000,bb464d94-30bf-4cf8-a320-905733fa67e2
Пересвет,13.4,56.4158326,38.1733534,Московская область,,RU-MOS,Центральный,46428511000,46728000011,5004100200000,ea80b93f-7a37-455e-a42c-33f13ab8bc06
Подольск,308.1,55.4389322,37.5703482,Московская область,,RU-MOS,Центральный,46460000000,46760000001,5000002400000,b22cf685-e391-42c8-aab5-a9aadb9193d4
Протвино,35.4,54.8705984,37.2182749,Московская область,,RU-MOS,Центральный,46467000000,46767000001,5000001400000,9990bc45-c7c1-407e-bdd2-5526e4f742d2
Пушкино,107.6,56.0103638,37.8471403,Московская область,,RU-MOS,Центральный,46458000000,46758000001,5000006700000,7f22cfa4-34fa-4fa0-bcb0-620cd8402cfa
Пущино,20.7,54.8324412,37.6210346,Московская область,,RU-MOS,Центральный,46462000000,46762000001,5000001500000,49579edb-77cd-4967-9ef2-5530c4076067
Раменское,121.9,55.5495132,38.2728914,Московская область,,RU-MOS,Центральный,46468000000,46768000001,5000006300000,a54506e0-5641-4d8c-b543-7bcce2c9887f
Реутов,108.1,55.7582621,37.8618553,Московская область,,RU-MOS,Центральный,46464000000,46764000001,5000001600000,e0504cf6-4d81-401c-b18b-434457aaaa21
Рошаль,20.0,55.6632776,39.8656147,Московская область,,RU-MOS,Центральный,46486506000,46786000006,5004900200000,377ca4f0-3268-42b4-bf68-af98c3682503
Руза,12.7,55.7014744,36.1959206,Московская область,,RU-MOS,Центральный,46466000000,46766000001,5000004500000,9e6c2327-d7ee-49b1-b36c-0bfc0eb5f145
Сергиев Посад,100.3,56.3062548,38.1502661,Московская область,,RU-MOS,Центральный,46428000000,46728000001,5004100000000,7baaac39-aa31-4712-893d-51ef80124a86
Серпухов,126.3,54.9226466,37.4033859,Московская область,,RU-MOS,Центральный,46470000000,46770000001,5000002800000,efc02a6a-273b-4a49-aef9-a5606ef8591c
Солнечногорск,50.2,56.185102,36.977631,Московская область,,RU-MOS,Центральный,46471000000,46771000001,5000006500000,d4dadcfd-355d-4fe9-963d-48ad122a7778
Старая Купавна,24.2,55.810648,38.175624,Московская область,,RU-MOS,Центральный,46451506000,46751000006,5004300300000,d49d936b-188f-4186-b2db-47e4b36682d6
Ступино,65.9,54.886274,38.078228,Московская область,,RU-MOS,Центральный,46476000000,46776000001,5000005400000,f516f0a9-3882-42fb-ae68-87a433e83e06
Талдом,12.6,56.7308564,37.5276003,Московская область,,RU-MOS,Центральный,46478000361,46778000001,5000005900000,5f2757f9-6cb1-41a6-9610-ee4f73a2f803
Фрязино,59.5,55.9590588,38.0410235,Московская область,,RU-MOS,Центральный,46480000000,46780000001,5000001900000,13696e0e-4c75-49aa-9c83-0a6faf5074ee
Химки,259.6,55.888657,37.4303702,Московская область,,RU-MOS,Центральный,46483000000,46783000001,5000003000000,d76255c8-3173-4db5-a39b-badd3ebdf851
Хотьково,21.3,56.2516982,37.9396017,Московская область,,RU-MOS,Центральный,46428516000,46728000016,5004100100000,6cdcecfe-4d41-426c-bac4-034348f7068b
Черноголовка,21.3,56.0100707,38.3792047,Московская область,,RU-MOS,Центральный,46485000000,46781000001,5000003500000,70c5b1c8-43ec-471f-b3df-fd6f60557332
Чехов,72.3,55.1508011,37.4533252,Московская область,,RU-MOS,Центральный,46484000000,46784000001,5000005300000,7eeb876e-7b67-4ed7-91ec-0588712db96c
Шатура,32.0,55.5777427,39.5445712,Московская область,,RU-MOS,Центральный,46486000000,46786000001,5004900000000,cd6486b7-fd7a-4da8-b7f3-420d6e16b07b
Щелково,126.1,55.9233801,37.9783707,Московская область,,RU-MOS,Центральный,46488000000,46788000001,5000006200000,c38a33c1-8f16-4454-bbf4-656d6b8b1739
Электрогорск,22.7,55.8780241,38.7806752,Московская область,,RU-MOS,Центральный,46491000000,46791000001,5000003300000,091e36e6-fab6-477b-8b07-9151cbeb9cd5
Электросталь,156.0,55.7847291,38.4447045,Московская область,,RU-MOS,Центральный,46490000000,46790000001,5000002100000,e0b171b6-bf2e-4d68-ab05-4d42ab2b375a
Электроугли,21.3,55.7170877,38.2192563,Московская область,,RU-MOS,Центральный,46451511000,46751000011,5004300200000,27fda454-386e-4618-8c08-4e639a0a8bc1
Яхрома,14.1,56.2890516,37.4831799,Московская область,,RU-MOS,Центральный,46415506000,46715000006,5004500200000,4e503ad8-0372-4434-888c-f111ed78040c
Апатиты,54.7,67.5677761,33.4067929,Мурманская область,,RU-MUR,Северо-Западный,47405000000,47705000001,5100000200000,f0851e80-59d9-400b-b6d5-5f5f623bb29d
Гаджиево,13.1,69.2491311,33.315341,Мурманская область,,RU-MUR,Северо-Западный,47529000000,47737000005,5100001200000,b77147ce-b55e-4019-9aca-ed3872b9fbb0
Заозерск,9.3,69.4003584,32.4501496,Мурманская область,,RU-MUR,Северо-Западный,47533000000,47733000,5100000300000,81a88076-04de-46c9-940a-3cb300e70e5b
Заполярный,14.7,69.4132852,30.7984312,Мурманская область,,RU-MUR,Северо-Западный,47215503000,47515000002,5100500200000,304cb068-e1d1-4947-944f-07c38cd8db6e
Кандалакша,30.4,67.1567974,32.4143218,Мурманская область,,RU-MUR,Северо-Западный,47202501000,47608101001,5100100100000,30fa6bcc-608e-40cb-b22a-b202967ff2a6
Кировск,26.0,67.6150424,33.663735,Мурманская область,,RU-MUR,Северо-Западный,47412000000,47712000001,5100000500000,f658a2c0-1f7d-4423-9465-e55d3553bf86
Ковдор,16.3,67.5661417,30.4741941,Мурманская область,,RU-MUR,Северо-Западный,47203501000,47703000001,5100200100000,01cc7377-a3a7-4793-9c77-52e3ef66a6ff
Кола,9.7,68.8786028,33.0262299,Мурманская область,,RU-MUR,Северо-Западный,47205501000,47605101001,5100300100000,866ace16-21ff-49c4-af8d-b74ef0e80208
Мончегорск,41.2,67.9386153,32.9359719,Мурманская область,,RU-MUR,Северо-Западный,47415000000,47715000001,5100000600000,177e037d-a06d-4f8a-9333-fd534dd34c5d
Мурманск,287.8,69.007721,33.0685865,Мурманская область,,RU-MUR,Северо-Западный,47401000000,47701000001,5100000100000,b7127184-ead6-422b-b7cf-4fc7725b47a5
Оленегорск,20.3,68.1422058,33.2669407,Мурманская область,,RU-MUR,Северо-Западный,47417000000,47717000001,5100000700000,c5fe1817-5163-4e3b-b06a-36d322c6bf57
Островной,1.7,68.0510344,39.5077846,Мурманская область,,RU-MUR,Северо-Западный,47531000000,47731000,5100000800000,0a358e8a-d3c4-45e5-b9fc-126092afd6f5
Полярные Зори,14.2,67.373084,32.4975636,Мурманская область,,RU-MUR,Северо-Западный,47419000000,47719000001,5100000900000,d70b2917-8cea-4555-a9fe-6d2c72d8d9cc
Полярный,17.5,69.1989583,33.4508591,Мурманская область,,RU-MUR,Северо-Западный,47525000000,47737000005,5100001000000,a4ae6202-6ec6-4bc6-abc5-4ecd6ca96d53
Североморск,53.6,69.0766801,33.4177759,Мурманская область,,RU-MUR,Северо-Западный,47530000000,47730000,5100001100000,53e652bc-dd1b-44e1-9ab2-401b04cf3ceb
Снежногорск,12.8,69.1921409,33.2383502,Мурманская область,,RU-MUR,Северо-Западный,47527000000,47737000011,5100001300000,22e4a0a6-68a6-47bc-a08c-11610ec6231a
Арзамас,104.0,55.3945814,43.8408141,Нижегородская область,,RU-NIZ,Приволжский,22403000000,22703000001,5200000400000,7e42f157-87d6-4111-a406-17432e814723
Балахна,48.5,56.495036,43.5758423,Нижегородская область,,RU-NIZ,Приволжский,22205501000,22505000001,5200400100000,275737a6-dee6-493b-82bb-ca5c3c97b24e
Богородск,33.8,56.1020828,43.5135442,Нижегородская область,,RU-NIZ,Приволжский,22207501000,22507000001,5200500100000,17962cbc-48c7-43d4-b174-c35485d114e7
Бор,76.9,56.3565458,44.0646481,Нижегородская область,,RU-NIZ,Приволжский,22412000000,22712000001,5200000500000,e736e903-6bc3-450b-b8af-7909213dc9ef
Ветлуга,8.3,57.8559204,45.7761957,Нижегородская область,,RU-NIZ,Приволжский,22218501000,22618101001,5201300100000,aa1e00f2-a813-4f3d-b74a-9f9d73bfb1ff
Володарск,9.9,56.2169751,43.1596417,Нижегородская область,,RU-NIZ,Приволжский,22231503000,22631103001,5201600100000,b92c9e2b-161d-4043-87ef-ed255529f7c6
Ворсма,10.3,55.989943,43.2718859,Нижегородская область,,RU-NIZ,Приволжский,22242503000,22542000003,5203200200000,cd695c84-0b68-4d4c-8068-76e9bba1228a
Выкса,53.0,55.3207727,42.1678834,Нижегородская область,,RU-NIZ,Приволжский,22415000000,22715000001,5200000700000,d89942e8-e06b-46bd-a805-7cec8f77417e
Горбатов,1.8,56.1307769,43.0626185,Нижегородская область,,RU-NIZ,Приволжский,22242505000,22542000005,5203200300000,9e79f812-d4b6-48d6-97c3-aa94c102de3e
Городец,29.7,56.6449218,43.4723104,Нижегородская область,,RU-NIZ,Приволжский,22228501000,22628101001,5202000100000,a80ea6a8-87f3-4621-89bb-eeb16f56ef94
Дзержинск,229.0,56.2376047,43.4599416,Нижегородская область,,RU-NIZ,Приволжский,22421000000,22721000001,5200000200000,1d5a97d5-9bdf-44c9-ac42-e201833e7f28
Заволжье,37.6,56.6404286,43.3872492,Нижегородская область,,RU-NIZ,Приволжский,22228503000,22628103001,5202000200000,b1a903c2-9bdf-4a10-8e4b-e34d7b8d7dc3
Княгинино,6.5,55.8205915,45.032337,Нижегородская область,,RU-NIZ,Приволжский,22233501000,22633101001,5202300100000,b3350a67-b3c0-47b2-afb3-2b308227a89e
Кстово,67.8,56.1432084,44.1664198,Нижегородская область,,RU-NIZ,Приволжский,22237501000,22637101001,5202700100000,8d72434a-977f-418b-80e0-f37ff75d52e4
Кулебаки,31.8,55.4296181,42.5125538,Нижегородская область,,RU-NIZ,Приволжский,22427000000,22727000,5200001000000,a963a64c-29cf-4342-bdc7-d998017aa4cd
Лукоянов,13.8,55.0326225,44.4933807,Нижегородская область,,RU-NIZ,Приволжский,22239501000,22639101001,5202900100000,edc07c38-090b-4990-9484-af85752c484f
Лысково,21.1,56.0262359,45.035771,Нижегородская область,,RU-NIZ,Приволжский,22240501000,22540000001,5203000100000,978c4d8c-f724-43b1-aa95-0c1fc49dc6b7
Навашино,14.6,55.543811,42.1887089,Нижегородская область,,RU-NIZ,Приволжский,22430000000,22730000001,5200001100000,87f58ce7-8bad-4b33-9654-907bbd18d36a
Нижний Новгород,1252.2,56.3240627,44.0053913,Нижегородская область,,RU-NIZ,Приволжский,22401000000,22701000001,5200000100000,555e7d61-d9a7-4ba6-9770-6caa8198c483
Павлово,56.7,55.9797564,43.0995042,Нижегородская область,,RU-NIZ,Приволжский,22242501000,22542000001,5203200100000,169a49f5-e0ed-44ae-83f8-653e44685e15
Первомайск,13.3,54.8675792,43.8013992,Нижегородская область,,RU-NIZ,Приволжский,22434000000,22734000001,5200000800000,a72a0367-92a4-4ec3-9aa2-2397039a3d70
Перевоз,8.7,55.5967718,44.5448369,Нижегородская область,,RU-NIZ,Приволжский,22435000000,22739000001,5200001200000,e3ff7ef2-92b6-4ab7-b2ff-4d58cab73dbc
Саров,96.1,54.9228268,43.3448089,Нижегородская область,,RU-NIZ,Приволжский,22503000000,22704000,5200000300000,be0210d1-1b58-49c1-8304-eb5ff5618fad
Семенов,24.1,56.7889794,44.4902885,Нижегородская область,,RU-NIZ,Приволжский,22437000000,22737000001,5200000600000,dacc69b0-38df-462e-b346-26541cb9c0b8
Сергач,19.9,55.5201515,45.4813231,Нижегородская область,,RU-NIZ,Приволжский,22248501000,22648101001,5203800100000,ef4d5a83-c574-48d9-86ec-386f18bec524
Урень,12.3,57.4612572,45.7833293,Нижегородская область,,RU-NIZ,Приволжский,22254501000,22554000001,5204500100000,0e7e2d6e-7217-4624-857a-67b2300c0952
Чкаловск,11.3,56.7651262,43.242077,Нижегородская область,,RU-NIZ,Приволжский,22442000000,22755000001,5204600100000,46659847-4fed-4981-bdaf-d260874864ee
Шахунья,19.7,57.6764293,46.6129009,Нижегородская область,,RU-NIZ,Приволжский,22458000000,22758000001,5200000900000,a5d97e2a-acea-44c0-92d1-1f107fc472cd
Боровичи,49.0,58.3840197,33.9175929,Новгородская область,,RU-NGR,Северо-Западный,49408000000,49606101001,5300300100000,ae2f372e-7df2-400c-95f9-4b0522567634
Валдай,14.0,57.9823766,33.2369436,Новгородская область,,RU-NGR,Северо-Западный,49208501000,49608101001,5300400100000,a9075bb6-f2b2-497f-86e1-fe3d9592c075
Великий Новгород,224.9,58.5213846,31.2755394,Новгородская область,,RU-NGR,Северо-Западный,49401000000,49701000001,5300000100000,8d0a05bf-3b8a-43e9-ac26-7ce61d7c4560
Малая Вишера,10.3,58.8458379,32.2247401,Новгородская область,,RU-NGR,Северо-Западный,49220501000,49620101001,5300900100000,58fbfb62-6e1e-402d-8c8d-c8ec722f4a5a
Окуловка,9.8,58.3910296,33.2901557,Новгородская область,,RU-NGR,Северо-Западный,49228501000,49628101001,5301200100000,b9e66b8f-b027-4e77-8466-55ba3be0b42b
Пестово,15.0,58.5973723,35.8143898,Новгородская область,,RU-NGR,Северо-Западный,49232501000,49632101001,5301400100000,4ad123c8-0130-4432-9d6c-e64946f2d647
Сольцы,8.5,58.1201281,30.309351,Новгородская область,,RU-NGR,Северо-Западный,49238501000,49538000001,5301600100000,c2f4a34c-80b4-4aea-a45b-d932909cccc0
Старая Русса,27.7,57.990737,31.3554897,Новгородская область,,RU-NGR,Северо-Западный,49413000000,49639101001,5301700100000,bc4e8fbc-54dc-4114-9c48-fd7a9b3e2e5c
Холм,3.4,57.145108,31.1787499,Новгородская область,,RU-NGR,Северо-Западный,49247501000,49647101001,5301900100000,b12ce6eb-00e8-4d54-b309-14569350f346
Чудово,13.9,59.1248394,31.6866241,Новгородская область,,RU-NGR,Северо-Западный,49250501000,49650101001,5302000100000,a084418b-c41f-4086-9009-0adb7e9117bf
Барабинск,28.7,55.35146,78.3464506,Новосибирская область,,RU-NVS,Сибирский,50405000000,50604101001,5400301200000,0133a54d-617a-4682-8885-e22c85588be8
Бердск,104.3,54.7582156,83.1070605,Новосибирская область,,RU-NVS,Сибирский,50408000000,50708000001,5400000200000,fd0191f4-4687-42d9-be64-4ebc7824bd08
Болотное,15.5,55.6692421,84.3906889,Новосибирская область,,RU-NVS,Сибирский,50206501000,50606101001,5400400100000,7e18e6d0-f7e1-4ada-a845-cc7ab5431a1a
Искитим,56.0,54.6267603,83.2951244,Новосибирская область,,RU-NVS,Сибирский,50412000000,50712000001,5400000500000,6965fcac-b7e4-4cab-ab35-a591ed65edf5
Карасук,26.8,53.7343189,78.0422967,Новосибирская область,,RU-NVS,Сибирский,50217501000,50617101001,5400900100000,23d59dbe-1aed-4564-84da-fe921f9ce294
Каргат,9.0,55.1945666,80.2829495,Новосибирская область,,RU-NVS,Сибирский,50219501000,50619101001,5401000100000,f3a2db25-007e-4830-b460-e763ced3a642
Куйбышев,43.5,55.4685094,78.3242048,Новосибирская область,,RU-NVS,Сибирский,50415000000,50630101001,5401501800000,1b70e712-092e-4c45-9984-af3a2c7cfdd7
Купино,13.8,54.366055,77.2973368,Новосибирская область,,RU-NVS,Сибирский,50232501000,50632101001,5401600100000,b1467e32-e362-4e64-b5d7-0d7deba77505
Новосибирск,1625.6,55.028191,82.9211489,Новосибирская область,,RU-NVS,Сибирский,50401000000,50701000001,5400000100000,8dea00e3-9aab-4d8e-887c-ef2aaa546456
Обь,29.9,54.9945576,82.6937181,Новосибирская область,,RU-NVS,Сибирский,50417000000,50717000001,5400000300000,8571e389-8c43-4c36-afae-b532d078c928
Татарск,23.4,55.2146167,75.9739914,Новосибирская область,,RU-NVS,Сибирский,50418000000,50650101001,5402302200000,17f3169d-63c5-4c04-9395-298333f7e0f4
Тогучин,20.8,55.2251631,84.4104118,Новосибирская область,,RU-NVS,Сибирский,50252501000,50652101001,5402400100000,579da04d-579c-4ef7-8f84-aa63088be55b
Черепаново,19.1,54.2206476,83.3724521,Новосибирская область,,RU-NVS,Сибирский,50257501000,50657101001,5402800100000,e849dc37-0f3b-4a66-8f0e-780c75927025
Чулым,11.0,55.0906867,80.9592508,Новосибирская область,,RU-NVS,Сибирский,50259501000,50659101001,5403000100000,bd136162-7404-4915-b456-239426f78b94
Исилькуль,22.4,54.9096002,71.2816284,Омская область,,RU-OMS,Сибирский,52405000000,52615101001,5500700100000,097baa31-3a80-4fea-b34b-c613fbd8730e
Калачинск,22.6,55.0598155,74.5653644,Омская область,,RU-OMS,Сибирский,52410000000,52618101001,5500800100000,fc59f020-5c8e-45e8-baf5-c9069a61e4a9
Называевск,10.9,55.5689323,71.3503426,Омская область,,RU-OMS,Сибирский,52413000000,52636101001,5501600100000,db2e2372-fed9-426b-a861-e64e2201f225
Омск,1154.5,54.9848566,73.3674517,Омская область,,RU-OMS,Сибирский,52401000000,52701000001,5500000100000,140e31da-27bf-4519-9ea0-6185d681d44e
Тара,28.2,56.9160511,74.3649194,Омская область,,RU-OMS,Сибирский,52415000000,52654101001,5502800100000,191443b9-a283-4368-a09d-0a98f16c7dc5
Тюкалинск,10.3,55.8703415,72.1954747,Омская область,,RU-OMS,Сибирский,52418000000,52656101001,5503000100000,10959db6-8297-49eb-93e9-2bb7641898ce
Абдулино,18.6,53.6778906,53.6472483,Оренбургская область,,RU-ORE,Приволжский,53404000000,53704000001,5605500100000,5e796fe8-2870-4a24-a14a-5669ca0141e5
Бугуруслан,48.5,53.6523728,52.4326853,Оренбургская область,,RU-ORE,Приволжский,53408000000,53708000001,5600000500000,680f6208-865b-43b4-ab24-1f42f51d2c33
Бузулук,86.1,52.7881277,52.2624877,Оренбургская область,,RU-ORE,Приволжский,53412000000,53712000001,5600000600000,653b316e-d0ca-414e-9211-03a96643e91b
Гай,33.8,51.4649189,58.4436875,Оренбургская область,,RU-ORE,Приволжский,53413000000,53713000001,5600000700000,c9a3cd9e-a133-4de9-aafb-a6e0b664312c
Кувандык,23.3,51.4783857,57.3612636,Оренбургская область,,RU-ORE,Приволжский,53414000000,53714000001,5600000800000,7644221b-0ef9-40c3-8378-cb0e2299747e
Медногорск,24.6,51.4037617,57.583163,Оренбургская область,,RU-ORE,Приволжский,53415000000,53715000001,5600000200000,86204c33-b552-4ebd-a93a-9dc8b274ee9c
Новотроицк,83.7,51.1964202,58.3018192,Оренбургская область,,RU-ORE,Приволжский,53420000000,53720000001,5600000300000,5cb431ac-6645-47b2-9716-5fccc9ec1d7f
Оренбург,572.2,51.7875092,55.1018828,Оренбургская область,,RU-ORE,Приволжский,53401000000,53701000001,5600000100000,dce97bff-deb2-4fd9-9aec-4f4327bbf89b
Орск,226.5,51.2294282,58.4752777,Оренбургская область,,RU-ORE,Приволжский,53423000000,53723000001,5600000400000,71e7cb45-f365-4e6b-b068-a7d35349c3ba
Соль-Илецк,26.9,51.1633736,54.9896726,Оренбургская область,,RU-ORE,Приволжский,53425000000,53725000001,5601500100000,d2d93864-f4a5-4ac2-b953-b230cc9d0fa0
Сорочинск,27.1,52.426685,53.1542745,Оренбургская область,,RU-ORE,Приволжский,53427000000,53727000001,5600000900000,1d9296cc-f534-4e81-9e97-c31d3ef9c25a
Ясный,15.3,51.036838,59.874344,Оренбургская область,,RU-ORE,Приволжский,53432000000,53732000001,5600001000000,c30ba5a3-1222-4fde-a8d0-ef2d8494e4c8
Болхов,10.9,53.4438496,36.0076833,Орловская область,,RU-ORL,Центральный,54204501000,54604101001,5700200100000,4393f437-1a48-4083-bed9-ad3382fdad16
Дмитровск,5.0,52.5054851,35.1415009,Орловская область,,RU-ORL,Центральный,54212501000,54612101001,5700500100000,25748825-cbac-4a45-b3d6-4770c3872478
Ливны,47.2,52.4284558,37.6039506,Орловская область,,RU-ORL,Центральный,54405000000,54705000001,5700000200000,aef2c735-2e21-42e5-8638-9667bade6a2b
Малоархангельск,3.2,52.4002192,36.5038579,Орловская область,,RU-ORL,Центральный,54232501000,54632101001,5701400100000,2afa3f40-891a-4640-a1cf-af9a5a6d1eb7
Мценск,36.6,53.2788438,36.5749105,Орловская область,,RU-ORL,Центральный,54410000000,54710000001,5700000300000,76f2780b-0f1c-4818-98a4-13da5c8a2c80
Новосиль,3.1,52.97454,37.0437146,Орловская область,,RU-ORL,Центральный,54243501000,54643101001,5701700100000,5f17239d-7e83-4e7d-afcd-b94e451465c9
Орел,308.8,52.9671298,36.0696427,Орловская область,,RU-ORL,Центральный,54401000000,54701000001,5700000100000,2abed4d9-5565-4885-bc96-f4ffccc6cba4
Белинский,7.5,52.9640996,43.4183212,Пензенская область,,RU-PNZ,Приволжский,56212501000,56612101,5800500100000,ea57fb75-444f-4f54-b89e-d66ac91774ba
Городище,7.7,53.2726916,45.7026142,Пензенская область,,RU-PNZ,Приволжский,56218501000,56618101001,5800800100000,b9d45c36-c679-40bb-8168-7ab78913a2c7
Заречный,65.5,53.1960836,45.1689907,Пензенская область,,RU-PNZ,Приволжский,56534000000,56734000001,5800000200000,ff38fc0c-d739-4627-a2f4-58af8f3d9d42
Каменка,34.6,53.1855463,44.0469717,Пензенская область,,RU-PNZ,Приволжский,56229501000,56629101001,5801100100000,e5313349-e01d-47a2-b329-b1629c243520
Кузнецк,80.5,53.1130888,46.605092,Пензенская область,,RU-PNZ,Приволжский,56405000000,56705000001,5800000300000,b4751488-e03d-416c-9cde-af7465256bfa
Нижний Ломов,20.5,53.5300905,43.6730217,Пензенская область,,RU-PNZ,Приволжский,56251501000,56651101001,5802200100000,f852d3a4-5d39-4a1b-be4a-f20ca9c4e60c
Никольск,19.6,53.7137496,46.0799857,Пензенская область,,RU-PNZ,Приволжский,56253501000,56653101001,5802300100000,6e26041a-db1c-4f41-93f1-f056ab0b70ef
Пенза,520.3,53.1753314,45.0348625,Пензенская область,,RU-PNZ,Приволжский,56401000000,56701000001,5800000100000,ff3292b1-a1d2-47d4-b35b-ac06b50555cc
Сердобск,30.9,52.4697595,44.2122414,Пензенская область,,RU-PNZ,Приволжский,56256501000,56656101001,5802500100000,20c2c219-f4a8-4d07-93c9-72bd6766c0b6
Спасск,7.0,53.9271974,43.1859073,Пензенская область,,RU-PNZ,Приволжский,56206501000,56606101001,5800300100000,d005a0db-1deb-4728-a800-1e423fa804df
Сурск,5.9,53.0761357,45.6910796,Пензенская область,,RU-PNZ,Приволжский,56218508000,56618108001,5800800200000,d8f506c4-a1e4-4524-b997-8651cb6f0af0
Александровск,11.9,59.1613221,57.5763459,Пермский край,,RU-PER,Приволжский,57405000000,57502000001,5900000300000,4f07ade1-1415-44c8-bed9-e851f1ef558d
Березники,139.2,59.4079923,56.8039427,Пермский край,,RU-PER,Приволжский,57408000000,57708000001,5900000200000,4ffcde97-05e9-4a6e-bd51-3a984b41b7bd
Верещагино,21.3,58.0797571,54.6581309,Пермский край,,RU-PER,Приволжский,57212501000,57712000001,5900500100000,9bd0970e-7fbb-4a64-a625-af7670526dba
Горнозаводск,11.2,58.3742532,58.3231716,Пермский край,,RU-PER,Приволжский,57214501000,57714000001,5900600100000,17644b43-80ff-4dea-b823-3b9dbf9e9ef0
Гремячинск,8.2,58.5626082,57.8520572,Пермский край,,RU-PER,Приволжский,57412000000,57715000001,5900000400000,edeaf203-1bc3-4fe1-b3ed-15eb89978783
Губаха,19.1,58.8371721,57.554533,Пермский край,,RU-PER,Приволжский,57415000000,57717000001,5900000500000,1dc365d3-60b1-41ea-a3b3-1c599024cf30
Добрянка,32.1,58.469685,56.4130737,Пермский край,,RU-PER,Приволжский,57416000000,57718000001,5900000600000,230c2f4d-fd9d-46fc-8bbd-b8de26810790
Кизел,13.5,59.0512783,57.6471028,Пермский край,,RU-PER,Приволжский,57418000000,57719000001,5900000700000,cc8b9eb5-bd4e-4472-8314-f889e8a6679c
Красновишерск,14.8,60.3901321,57.0535682,Пермский край,,RU-PER,Приволжский,57226501000,57760000001,5901300100000,f42f49ba-d949-4245-843a-6ec5203d2fcd
Краснокамск,52.5,58.0822065,55.7479936,Пермский край,,RU-PER,Приволжский,57420000000,57720000001,5900001500000,22ac4485-bdf3-422e-b67f-9b3aba46de5e
Кудымкар,30.4,59.0167925,54.6572508,Пермский край,,RU-PER,Приволжский,57421000000,57721000001,5900001400000,d36590ad-0286-44a2-876d-7732deee4234
Кунгур,64.9,57.4283296,56.9438656,Пермский край,,RU-PER,Приволжский,57422000000,57722000001,5900000900000,73e5113d-949a-4a9e-8e44-6eae9ef93747
Лысьва,60.3,58.0995875,57.8086825,Пермский край,,RU-PER,Приволжский,57427000000,57726000001,5900001000000,5d7c95a5-a4d7-4fb4-9774-93e527636a9e
Нытва,18.1,57.9336725,55.3356084,Пермский край,,RU-PER,Приволжский,57234501000,57727000001,5901400100000,a49957ba-7860-484f-bf7a-abbbe1d76bab
Оса,20.8,57.2889515,55.4688668,Пермский край,,RU-PER,Приволжский,57240501000,57728000001,5901600100000,18e7b084-c83f-40bf-9378-d26628528a19
Оханск,7.0,57.7180034,55.3872469,Пермский край,,RU-PER,Приволжский,57242501000,57729000001,5901800100000,48159476-c6db-4258-a0bc-f8ee52e7aef6
Очер,14.2,57.8852686,54.7161091,Пермский край,,RU-PER,Приволжский,57244501000,57762000001,5901900100000,6a9b1a8a-5da1-470c-a03a-ecbb3cee0ee9
Пермь,1055.4,58.0102583,56.2342034,Пермский край,,RU-PER,Приволжский,57401000000,57701000001,5900000100000,a309e4ce-2f36-4106-b1ca-53e0f48a6d95
Соликамск,92.6,59.6482998,56.771009,Пермский край,,RU-PER,Приволжский,57430000000,57730000001,5900001100000,8b698775-fe5e-4fc0-9f0d-272855d82d15
Усолье,6.3,59.4277573,56.6837872,Пермский край,,RU-PER,Приволжский,57253501000,57708000006,5902400100000,9acef094-749b-406f-89a2-98c02ebf50c5
Чайковский,82.4,56.7781501,54.1477965,Пермский край,,RU-PER,Приволжский,57435000000,57735000001,5900001200000,06d7a6d6-8f57-4e5a-b698-2bc44c92bb84
Чердынь,4.6,60.4011933,56.4799933,Пермский край,,RU-PER,Приволжский,57256501000,57756000001,5902700100000,242133ad-1c0f-43f0-9865-7b5f914a778f
Чермоз,3.3,58.7842834,56.1507138,Пермский край,,RU-PER,Приволжский,57220504000,57759000006,5900800200000,8f353d4e-1374-4a88-a06b-51c6a3f9acd1
Чернушка,33.1,56.5160768,56.0763049,Пермский край,,RU-PER,Приволжский,57257501000,57757000001,5902800100000,c3a35399-c5ea-4f12-bf34-c2cc21e1cc60
Чусовой,43.7,58.2974596,57.8193615,Пермский край,,RU-PER,Приволжский,57440000000,57758000001,5900001300000,784b1911-182d-476b-a4ad-0f3fa1ef7777
Арсеньев,52.2,44.1622031,133.2696209,Приморский край,,RU-PRI,Дальневосточный,5403000000,5703000001,2500000200000,36e4c7ce-7320-48ee-8320-0587c1e09917
Артем,105.7,43.3501675,132.1596175,Приморский край,,RU-PRI,Дальневосточный,5405000000,5705000001,2500000300000,3ce80b09-9b72-4e68-9b2d-becaaee4570e
Большой Камень,39.1,43.1111742,132.3480082,Приморский край,,RU-PRI,Дальневосточный,5406000000,5706000001,2500000700000,1315186b-9ae8-4f92-b3a5-1db055c15358
Владивосток,606.6,43.1164904,131.8823937,Приморский край,,RU-PRI,Дальневосточный,5401000000,5701000001,2500000100000,7b6de6a5-86d0-4735-b11a-499081111af8
Дальнегорск,34.1,44.5539457,135.5662716,Приморский край,,RU-PRI,Дальневосточный,5407000000,5707000001,2500000800000,b2a863e2-37be-4858-b65e-0babc3872052
Дальнереченск,25.1,45.9308483,133.7316907,Приморский край,,RU-PRI,Дальневосточный,5408000000,5708000001,2500000900000,e6e6c2b1-20cf-47a7-9a4b-39e8a96cc5c8
Лесозаводск,35.1,45.4780092,133.4186199,Приморский край,,RU-PRI,Дальневосточный,5411000000,5711000001,2500001200000,71b4cdae-5e53-4406-a418-1e8b5c17dc2e
Находка,145.2,42.8239372,132.8927361,Приморский край,,RU-PRI,Дальневосточный,5414000000,5714000001,2500000400000,225a3506-35aa-4456-8bd7-244bdfbc4eaf
Партизанск,36.6,43.1280578,133.1264567,Приморский край,,RU-PRI,Дальневосточный,5417000000,5717000001,2500000500000,b62edf86-4257-4e80-ade6-857529bd1b1e
Спасск-Дальний,39.8,44.5901175,132.8157288,Приморский край,,RU-PRI,Дальневосточный,5420000000,5720000001,2500001000000,e55554eb-c571-49d2-bf69-c3c4acf8b10b
Уссурийск,173.6,43.7971818,131.9518229,Приморский край,,RU-PRI,Дальневосточный,5423000000,5723000001,2500001100000,de7335fb-9baa-48eb-927d-0bb299b2e5bc
Фокино,22.9,42.9706317,132.4110196,Приморский край,,RU-PRI,Дальневосточный,5547000000,5747000001,2500000600000,fdb16823-586f-43d2-a1b4-b1c7c7f00bcd
Великие Луки,90.9,56.332208,30.5508641,Псковская область,,RU-PSK,Северо-Западный,58410000000,58710000001,6000000200000,ca091eae-2c39-4730-b57d-b2fa570f71cb
Гдов,3.3,58.7432429,27.8264809,Псковская область,,RU-PSK,Северо-Западный,58208501000,58608101001,6000400100000,cdbe4f8f-1a44-4c99-a3c8-06b501a3ad2e
Дно,7.4,57.826974,29.9629389,Псковская область,,RU-PSK,Северо-Западный,58212501000,58612101001,6000600100000,31e4b2e4-ae67-43db-82ea-8728cd5a71c7
Невель,14.5,56.0201973,29.9239983,Псковская область,,RU-PSK,Северо-Западный,58220501000,58620101001,6001000100000,6570fdb6-7602-477e-a783-f186456dabfe
Новоржев,3.1,57.029807,29.3433083,Псковская область,,RU-PSK,Северо-Западный,58223501000,58623101001,6001100100000,236c48ca-48c9-471f-8891-0b73ea89bc2b
Новосокольники,7.0,56.3408431,30.1527573,Псковская область,,RU-PSK,Северо-Западный,58226501000,58626101001,6001200100000,af8fb4a0-5d4e-4e0e-94fc-20021da2f67a
Опочка,9.5,56.710725,28.6717519,Псковская область,,RU-PSK,Северо-Западный,58229501000,58629101001,6001300100000,59c2f176-3b63-4086-bc6c-efa246c64a1e
Остров,20.5,57.3451528,28.3437593,Псковская область,,RU-PSK,Северо-Западный,58233501000,58633101001,6001400100000,67d379ab-16ac-40d0-95c0-f5f1cbeb578d
Печоры,9.3,57.8145817,27.622259,Псковская область,,RU-PSK,Северо-Западный,58240501000,58640101001,6001600100000,8cb44bcc-4e46-409a-972a-b99a59fcc7e9
Порхов,8.3,57.7765219,29.5436626,Псковская область,,RU-PSK,Северо-Западный,58247501000,58647101001,6001800100000,c02d55c3-2086-400f-81b7-f1f540f31a87
Псков,210.3,57.8194415,28.3317198,Псковская область,,RU-PSK,Северо-Западный,58401000000,58701000001,6000000100000,2858811e-448a-482e-9863-e03bf06bb5d4
Пустошка,3.9,56.3374813,29.3668055,Псковская область,,RU-PSK,Северо-Западный,58250501000,58650101001,6001900100000,28a7a368-16ab-4ffc-9b3e-4a4c3e16bf74
Пыталово,5.4,57.0637952,27.9236214,Псковская область,,RU-PSK,Северо-Западный,58253501000,58653101001,6002100100000,8cfcdc08-f726-4aff-abfa-b20199b32172
Себеж,5.3,56.2908554,28.4724326,Псковская область,,RU-PSK,Северо-Западный,58254501000,58654101001,6002200100000,749fbd77-ddae-408b-8ad8-154a0a22306a
Адыгейск,12.7,44.878414,39.190289,Республика Адыгея,,RU-AD,Южный,79403000000,79703000001,100000200000,ccdfd496-8108-4655-aadd-bd228747306d
Майкоп,141.5,44.6098268,40.1006606,Республика Адыгея,,RU-AD,Южный,79401000000,79701000001,100000100000,8cfbe842-e803-49ca-9347-1ef90481dd98
Горно-Алтайск,64.5,51.9581028,85.9603235,Республика Алтай,,RU-AL,Сибирский,84401000000,84701000001,400000100000,0839d751-b940-4d3d-afb6-5df03fdd7791
Агидель,14.2,55.8999056,53.9220144,Республика Башкортостан,,RU-BA,Приволжский,80403000000,80703000001,200000200000,8294b97c-7553-499e-8369-821d6eb0fdc7
Баймак,17.2,52.5912896,58.3110998,Республика Башкортостан,,RU-BA,Приволжский,80404000000,80606101001,200600100000,874d4c58-31cd-4309-80db-8f14863efdbb
Белебей,59.2,54.1034582,54.1113129,Республика Башкортостан,,RU-BA,Приволжский,80405000000,80609101001,200900100000,11e85c3e-c276-43b3-94e8-6b7f6cde5ac1
Белорецк,64.9,53.9676488,58.4100419,Республика Башкортостан,,RU-BA,Приволжский,80410000000,80611101001,201100100000,dd65b1de-c076-4126-9b56-c4b4979e2b0f
Бирск,46.5,55.4155753,55.5582214,Республика Башкортостан,,RU-BA,Приволжский,80415000000,80613101001,201300100000,8c049a5c-f080-4052-93a9-89decf401900
Благовещенск,34.8,55.0499867,55.9553186,Республика Башкортостан,,RU-BA,Приволжский,80417000000,80615101001,201500100000,da7ef573-cdbe-458e-a790-b29ad3a3d140
Давлеканово,23.4,54.2226707,55.0312373,Республика Башкортостан,,RU-BA,Приволжский,80419000000,80622101001,205900100000,d820f602-8763-4f63-be89-10077a2f025b
Дюртюли,31.0,55.4848318,54.8524765,Республика Башкортостан,,RU-BA,Приволжский,80418000000,80624101001,206000100000,d4ac608f-5096-4529-bab2-68a26c64272e
Ишимбай,64.4,53.4545764,56.0438751,Республика Башкортостан,,RU-BA,Приволжский,80420000000,80631101001,202600100000,b3d2e10f-752d-4b90-b54b-9d6545f38ae0
Кумертау,59.5,52.7564939,55.7970197,Республика Башкортостан,,RU-BA,Приволжский,80423000000,80723000001,200000700000,48e38991-07fd-4aaa-b240-a7280e4a823f
Межгорье,15.5,54.2397689,57.9614547,Республика Башкортостан,,RU-BA,Приволжский,80507000000,80707000001,200000800000,5fd3a551-8553-4571-bfc8-2bfb211686f5
Мелеуз,56.7,52.9589532,55.9282838,Республика Башкортостан,,RU-BA,Приволжский,80425000000,80641101001,203500100000,c516337d-f590-439b-83ad-6f15a9325740
Нефтекамск,131.1,56.088377,54.2483061,Республика Башкортостан,,RU-BA,Приволжский,80427000000,80727000001,200000300000,2c9997d2-ce94-431a-96c9-722d2238d5c8
Октябрьский,114.1,54.4815311,53.4655972,Республика Башкортостан,,RU-BA,Приволжский,80435000000,80735000001,200000400000,abd1bc35-ec51-437a-abee-76a4f620f662
Салават,150.5,53.3616974,55.9245224,Республика Башкортостан,,RU-BA,Приволжский,80439000000,80739000001,200000500000,fc14353f-5a1d-4f22-94ea-b900bad9a9f1
Сибай,60.8,52.7204651,58.6663783,Республика Башкортостан,,RU-BA,Приволжский,80443000000,80743000001,200000600000,d7825646-76f7-4322-a88c-42cc90cbd2b2
Стерлитамак,276.4,53.6300864,55.9317089,Республика Башкортостан,,RU-BA,Приволжский,80445000000,80745000001,200001400000,84e0b23d-82fe-40a8-8739-55e679780dc3
